hospital_id,KName,lon,lat,Str,PLZ,Ort,Bundesland,Adresse,KV,x_center_m,y_center_m,cell_size_m,waterway_length_in_cell_km_1939,waterway_segments_hitting_cell_1939,x_min,x_max,y_min,y_max
K000000002,Diakonissenkrankenhaus Flensburg,9.426,54.7904,Knuthstr. 1,24939,Flensburg,Schleswig-Holstein,"Diakonissenkrankenhaus Flensburg, Knuthstr. 1, 24939 Flensburg",Schleswig-Holstein,4284063.680874565,3520661.6586438394,50000,2.616313857581774,1,4259063.680874565,4309063.680874565,3495661.6586438394,3545661.6586438394
K000000003,Malteser Krankenhaus St. Franziskus-Hospital,9.4216,54.793,Waldstr. 17,24939,Flensburg,Schleswig-Holstein,"Malteser Krankenhaus St. Franziskus-Hospital, Waldstraße 17, 24939 Flensburg",Schleswig-Holstein,4283782.918033585,3520953.2399278237,50000,1.692775484675645,1,4258782.918033585,4308782.918033585,3495953.2399278237,3545953.2399278237
K000000004,Städtisches Krankenhaus Kiel GmbH,10.1162,54.3224,Chemnitzstr. 33,24116,Kiel,Schleswig-Holstein,"Städtisches Krankenhaus Kiel GmbH, Chemnitzstr. 33, 24116 Kiel",Schleswig-Holstein,4328562.788163073,3468440.8663023724,50000,40.82094032678699,18,4303562.788163073,4353562.788163073,3443440.8663023724,3493440.8663023724
K000000005,Sankt Elisabeth Krankenhaus Kiel,10.1271,54.3168,Königsweg 8,24103,Kiel,Schleswig-Holstein,"Sankt Elisabeth Krankenhaus Kiel, Königsweg 8, 24103 Kiel",Schleswig-Holstein,4329273.319929826,3467818.8743014503,50000,36.889106626904265,17,4304273.319929826,4354273.319929826,3442818.8743014503,3492818.8743014503
K000000006,Park-Klinik GmbH,10.1256,54.3267,Goethestr. 11,24116,Kiel,Schleswig-Holstein,"Park-Klinik GmbH, Goethestrasse 11, 24116 Kiel",Schleswig-Holstein,4329173.733636578,3468920.406320483,50000,38.643036924502084,18,4304173.733636578,4354173.733636578,3443920.406320483,3493920.406320483
K000000007,Lubinus Clinicum,10.1169,54.3537,Steenbeker Weg 25,24106,Kiel,Schleswig-Holstein,"Lubinus Clinicum, Steenbeker Weg 25, 24106 Kiel",Schleswig-Holstein,4328602.617124513,3471924.0993981217,50000,46.23693022237353,18,4303602.617124513,4353602.617124513,3446924.0993981217,3496924.0993981217
K000000008,Klinik Flechsig GmbH,10.1162,54.3224,Chemnitzstr. 33,24116,Kiel,Schleswig-Holstein,"Klinik Flechsig GmbH, Chemnitzstraße 33, 24116 Kiel",Schleswig-Holstein,4328562.788163073,3468440.8663023724,50000,40.82094032678699,18,4303562.788163073,4353562.788163073,3443440.8663023724,3493440.8663023724
K000000009,Kath. Marien-Krankenhaus Lübeck gemeinnützige GmbH,10.6851,53.8623,Parade 3,23552,Lübeck,Schleswig-Holstein,"Kath. Marien-Krankenhaus Lübeck gemeinnützige GmbH, Parade 3, 23552 Lübeck",Schleswig-Holstein,4366080.861902422,3417446.3719349066,50000,66.93528014156895,24,4341080.861902422,4391080.861902422,3392446.3719349066,3442446.3719349066
K000000010,DRK-Fachklinik Hahnknüll gGmbH,9.9468,54.0984,Hahnknüll 58,24537,Neumünster,Schleswig-Holstein,"DRK-Fachklinik Hahnknüll gGmbH, Hahnknüll 58, 24537 Neumünster",Schleswig-Holstein,4317518.879449323,3443508.560190071,50000,50.203238312118216,7,4292518.879449323,4342518.879449323,3418508.560190071,3468508.560190071
K000000012,Johanniter-Krankenhaus Geesthacht GmbH,10.3854,53.4316,Am Runden Berge 3,21502,Geesthacht,Schleswig-Holstein,"Johanniter-Krankenhaus Geesthacht GmbH, Am Runden Berge 3, 21502 Geesthacht",Schleswig-Holstein,4346618.478579923,3369371.4793781755,50000,152.66286911575514,26,4321618.478579923,4371618.478579923,3344371.4793781755,3394371.4793781755
K000000013,Johanniter Tagesklinik Schwarzenbek,10.4787,53.5058,Körnerplatz 6,21493,Schwarzenbek,Schleswig-Holstein,"Johanniter Tagesklinik Schwarzenbek, Körnerplatz 6, 21493 Schwarzenbek",Schleswig-Holstein,4352765.125847484,3377665.4490056788,50000,141.5444289546799,23,4327765.125847484,4377765.125847484,3352665.4490056788,3402665.4490056788
K000000014,Johanniter Tagesklnik Mölln,10.6864,53.6262,Wasserkrüger Weg 7,23879,Mölln,Schleswig-Holstein,"Johanniter Tagesklnik Mölln, Wasserkrüger Weg 7, 23879 Mölln",Schleswig-Holstein,4366418.669865862,3391174.1379039227,50000,71.78731197163626,9,4341418.669865862,4391418.669865862,3366174.1379039227,3416174.1379039227
K000000015,DRK-Krankenhaus Mölln-Ratzeburg gGmbH,10.7798,53.6893,Röpersberg 2,23909,Ratzeburg,Schleswig-Holstein,"DRK-Krankenhaus Mölln-Ratzeburg gGmbH, Röpersberg 2, 23909 Ratzeburg",Schleswig-Holstein,4372522.103034477,3398258.273351076,50000,76.30910041592627,21,4347522.103034477,4397522.103034477,3373258.273351076,3423258.273351076
K000000016,"Klinikum Nordfriesland gGmbH, Klinik Husum",9.0507,54.4824,Erichsenweg 16,25813,Husum,Schleswig-Holstein,"Klinikum Nordfriesland gGmbH, Klinik Husum, Erichsenweg 16, 25813 Husum",Schleswig-Holstein,4259455.570677312,3486644.221835525,50000,85.71987855315224,6,4234455.570677312,4284455.570677312,3461644.221835525,3511644.221835525
K000000017,"Klinikum Nordfriesland gGmbH, Klinik Niebüll",8.8448,54.7928,Gather Landstr. 75,25899,Niebüll,Schleswig-Holstein,"Klinikum Nordfriesland gGmbH, Klinik Niebüll, Gather Landstraße 75, 25899 Niebüll",Schleswig-Holstein,4246671.187045708,3521376.535804889,50000,0.0,0,4221671.187045708,4271671.187045708,3496376.535804889,3546376.535804889
K000000019,"Klinikum Nordfriesland gGmbH, Inselklinik Föhr-Amrum",8.5642,54.6851,Rebbelstieg 24,25938,Wyk,Schleswig-Holstein,"Klinikum Nordfriesland gGmbH, Inselklinik Föhr-Amrum, Rebbelstieg 24, 25938 Wyk",Schleswig-Holstein,4228375.971490202,3509717.5825659707,50000,0.0,0,4203375.971490202,4253375.971490202,3484717.5825659707,3534717.5825659707
K000000020,DIAKO Nordfriesland gGmbH (Fachklinik für Psychiatrie und Psychosomatik - stat. Angebote),8.985,54.6152,Gammeltoft 8-15,25821,Breklum,Schleswig-Holstein,"DIAKO Nordfriesland gGmbH (Fachklinik für Psychiatrie und Psychosomatik - stat. Angebote), Gammeltoft 8-15, 25821 Breklum",Schleswig-Holstein,4255407.988962222,3501479.108866842,50000,0.0,0,4230407.988962222,4280407.988962222,3476479.108866842,3526479.108866842
K000000022,DIAKO Nordfriesland gGmbH (Tagesklinik Husum),9.0506,54.4863,Theodor-Schäfer-Str. 1b,25813,Husum,Schleswig-Holstein,"DIAKO Nordfriesland gGmbH (Tagesklinik Husum), Theodor-Schäfer-Str. 1b, 25813 Husum",Schleswig-Holstein,4259454.894726628,3487078.2763443915,50000,84.23308963040846,6,4234454.894726628,4284454.894726628,3462078.2763443915,3512078.2763443915
K000000023,DIAKO Nordfriesland gGmbH (Tagesklinik Niebüll),8.8335,54.7867,Bahnhofstr. 24a,25899,Niebüll,Schleswig-Holstein,"DIAKO Nordfriesland gGmbH (Tagesklinik Niebüll), Bahnhofstraße 24a, 25899 Niebüll",Schleswig-Holstein,4245932.993349411,3520709.490628554,50000,0.0,0,4220932.993349411,4270932.993349411,3495709.490628554,3545709.490628554
K000000024,Asklepios Nordseeklinik Westerland/Sylt,8.3145,54.9256,Norderstr. 81,25980,Sylt/OT Westerland,Schleswig-Holstein,"Asklepios Nordseeklinik Westerland/Sylt, Norderstr. 81, 25980 Sylt/OT Westerland",Schleswig-Holstein,4212908.597348547,3536822.2175096935,50000,0.0,0,4187908.5973485466,4237908.597348547,3511822.2175096935,3561822.2175096935
K000000025,Klinik Dr. Winkler,9.0559,54.48,Brinckmannstr. 6,25813,Husum,Schleswig-Holstein,"Klinik Dr. Winkler, Brinckmannstraße 6, 25813 Husum",Schleswig-Holstein,4259789.118189608,3486372.7479204214,50000,86.54057511846551,6,4234789.118189608,4284789.118189608,3461372.7479204214,3511372.7479204214
K000000026,Sana Kliniken Ostholstein GmbH - Inselklinik Fehmarn,11.1857,54.4415,Mummendorfer Weg 12,23769,Burg auf Fehmarn,Schleswig-Holstein,"Sana Kliniken Ostholstein GmbH - Inselklinik Fehmarn, Mummendorfer Weg 12, 23769 Burg auf Fehmarn",Schleswig-Holstein,4397945.164825873,3482319.6480205134,50000,0.0,0,4372945.164825873,4422945.164825873,3457319.6480205134,3507319.6480205134
K000000027,Sana Kliniken Ostholstein GmbH - Klinik Eutin,10.6013,54.1327,Hospitalstr. 22,23701,Eutin,Schleswig-Holstein,"Sana Kliniken Ostholstein GmbH - Klinik Eutin, Hospitalstraße 22, 23701 Eutin",Schleswig-Holstein,4360313.075865087,3447487.6429028427,50000,20.396951668857277,8,4335313.075865087,4385313.075865087,3422487.6429028427,3472487.6429028427
K000000028,Sana Kliniken Ostholstein GmbH - Klinik Oldenburg,10.8799,54.2902,Mühlenkamp 5,23758,Oldenburg i.H.,Schleswig-Holstein,"Sana Kliniken Ostholstein GmbH - Klinik Oldenburg, Mühlenkamp 5, 23758 Oldenburg i.H.",Schleswig-Holstein,4378310.360640407,3465200.0813520155,50000,0.0,0,4353310.360640407,4403310.360640407,3440200.0813520155,3490200.0813520155
K000000029,AMEOS Klinikum Neustadt,10.7952,54.1057,Wiesenhof 1,23730,Neustadt i. H.,Schleswig-Holstein,"AMEOS Klinikum Neustadt, Wiesenhof 1, 23730 Neustadt i. H.",Schleswig-Holstein,4373023.312473198,3444605.46158392,50000,34.80479887712984,16,4348023.312473198,4398023.312473198,3419605.46158392,3469605.46158392
K000000030,AMEOS Klinikum Lübeck,10.6912,53.85,Kahlhorststr. 33,23562,Lübeck,Schleswig-Holstein,"AMEOS Klinikum Lübeck, Kahlhorststraße 33, 23562 Lübeck",Schleswig-Holstein,4366495.4884577785,3416081.44877224,50000,68.53825781732661,24,4341495.4884577785,4391495.4884577785,3391081.44877224,3441081.44877224
K000000031,AMEOS Klinikum Heiligenhafen,10.9622,54.3741,Friedrich-Ebert-Str. 100,23774,Heiligenhafen,Schleswig-Holstein,"AMEOS Klinikum Heiligenhafen, Friedrich-Ebert-Straße 100, 23774 Heiligenhafen",Schleswig-Holstein,4383544.028417381,3474604.282811055,50000,0.0,0,4358544.028417381,4408544.028417381,3449604.282811055,3499604.282811055
K000000032,AMEOS Klinikum Kiel,10.1849,54.2966,Tiroler Ring 621-62,24147,Kiel,Schleswig-Holstein,"AMEOS Klinikum Kiel, Tiroler Ring 621-62, 24147 Kiel",Schleswig-Holstein,4333041.534276582,3465579.074019899,50000,31.8793449878954,15,4308041.534276582,4358041.534276582,3440579.074019899,3490579.074019899
K000000033,AMEOS Klinikum Preetz,10.2763,54.2387,Am Krankenhaus 5a,24211,Preetz,Schleswig-Holstein,"AMEOS Klinikum Preetz, Am Krankenhaus 5a, 24211 Preetz",Schleswig-Holstein,4339018.927373697,3459154.7846007836,50000,25.61866989329681,15,4314018.927373697,4364018.927373697,3434154.7846007836,3484154.7846007836
K000000034,AMEOS Tageslinik Oldenburg,10.8805,54.2921,Hoheluftstr. 10,23758,Oldenburg i. H.,Schleswig-Holstein,"AMEOS Klinikum Oldenburg, Hoheluftstraße 10, 23758 Oldenburg i. H.",Schleswig-Holstein,4378346.819519611,3465411.981595113,50000,0.0,0,4353346.819519611,4403346.819519611,3440411.981595113,3490411.981595113
K000000035,AMEOS Klinikum Oldenburg,10.8799,54.2902,Mühlenkamp 5,23758,Oldenburg i. H.,Schleswig-Holstein,"AMEOS Klinikum Oldenburg, Mühlenkamp 5, 23758 Oldenburg i. H.",Schleswig-Holstein,4378310.360640407,3465200.0813520155,50000,0.0,0,4353310.360640407,4403310.360640407,3440200.0813520155,3490200.0813520155
K000000036,Sankt Elisabeth Krankenhaus Eutin,10.6108,54.1379,Plöner Str. 42,23701,Eutin,Schleswig-Holstein,"Sankt Elisabeth Krankenhaus Eutin, Plöner Str. 42, 23701 Eutin",Schleswig-Holstein,4360929.206448489,3448071.501822372,50000,15.328108456660047,5,4335929.206448489,4385929.206448489,3423071.501822372,3473071.501822372
K000000037,HELIOS Agnes-Karll Krankenhaus Bad Schwartau [BSC] [BSC],10.694,53.9223,Am Hochkamp 21,23611,Bad Schwartau,Schleswig-Holstein,"HELIOS Agnes-Karll Krankenhaus Bad Schwartau [BSC] [BSC], Am Hochkamp 21, 23611 Bad Schwartau",Schleswig-Holstein,4366601.5620535165,3424128.710189926,50000,59.63687688737354,24,4341601.5620535165,4391601.5620535165,3399128.710189926,3449128.710189926
K000000038,AUGUST-BIER-KLINIK - Neurologie und Rehabilitation,10.5476,54.1648,Diekseepromendade 7-11,23714,Bad Malente-Gremsmühlen,Schleswig-Holstein,"AUGUST-BIER-KLINIK - Neurologie und Rehabilitation, Diekseepromendade 7-11, 23714 Bad Malente-Gremsmühlen",Schleswig-Holstein,4356774.769489458,3451031.8892357326,50000,6.455754102257655,3,4331774.769489458,4381774.769489458,3426031.8892357326,3476031.8892357326
K000000039,"Sana Kliniken Ostholstein GmbH, Klinik Middelburg",10.6836,54.0818,Middelburger Str. 1,23701,Süsel,Schleswig-Holstein,"Sana Kliniken Ostholstein GmbH, Klinik Middelburg, Middelburger Str. 1, 23701 Süsel",Schleswig-Holstein,4365748.04913619,3441871.290815537,50000,38.05935162346262,18,4340748.04913619,4390748.04913619,3416871.290815537,3466871.290815537
K000000040,Regio Kliniken GmbH - Klinikum Pinneberg,9.811,53.6549,Fahltskamp 74,25421,Pinneberg,Schleswig-Holstein,"Regio Kliniken GmbH - Klinikum Pinneberg, Fahltskamp 74, 25421 Pinneberg",Schleswig-Holstein,4308502.219749113,3394169.2342296834,50000,191.11603155926238,38,4283502.219749113,4333502.219749113,3369169.2342296834,3419169.2342296834
K000000041,Regio Kliniken GmbH - Klinikum Elmshorn,9.6839,53.7511,Agnes-Karll-Allee 17,25337,Elmshorn,Schleswig-Holstein,"Regio Kliniken GmbH - Klinikum Elmshorn, Agnes-Karll-Allee 17, 25337 Elmshorn",Schleswig-Holstein,4300144.993611282,3404903.908846411,50000,248.55695290191548,52,4275144.993611282,4325144.993611282,3379903.908846411,3429903.908846411
K000000043,Klinik Preetz,10.2763,54.2387,Am Krankenhaus 5,24306,Plön,Schleswig-Holstein,"Klinik Preetz, Am Krankenhaus 5, 24306 Plön",Schleswig-Holstein,4339018.927373697,3459154.7846007836,50000,25.61866989329681,15,4314018.927373697,4364018.927373697,3434154.7846007836,3484154.7846007836
K000000044,Fachklinik Freudenholm-Ruhleben / Klinische Abteilung,10.4459,54.137,Missionsweg 3,24306,Bösdorf,Schleswig-Holstein,"Fachklinik Freudenholm-Ruhleben / Klinische Abteilung, Missionsweg 3, 24306 Bösdorf",Schleswig-Holstein,4350150.181538862,3447892.641749911,50000,0.05249816938328318,1,4325150.181538862,4375150.181538862,3422892.641749911,3472892.641749911
K000000045,imland GmbH - imland Klinik Rendsburg,9.6579,54.297,Lilienstr. 20-28,24768,Rendsburg,Schleswig-Holstein,"imland GmbH - imland Klinik Rendsburg, Lilienstr. 20-28, 24768 Rendsburg",Schleswig-Holstein,4298721.164730315,3465660.8849064177,50000,146.54260689922893,22,4273721.164730315,4323721.164730315,3440660.8849064177,3490660.8849064177
K000000046,imland GmbH - imland Klinik Eckernförde,9.8178,54.4823,Schleswiger Str. 114-116,24340,Eckernförde,Schleswig-Holstein,"imland GmbH - imland Klinik Eckernförde, Schleswiger Str. 114-116, 24340 Eckernförde",Schleswig-Holstein,4309187.313897285,3486243.821033149,50000,103.10431169698616,21,4284187.313897285,4334187.313897285,3461243.821033149,3511243.821033149
K000000047,HELIOS Klinik Schleswig GmbH,9.5586,54.5178,St. Jürgener Str. 1-3,24837,Schleswig,Schleswig-Holstein,"HELIOS Klinik Schleswig GmbH, St. Jürgener Straße 1-3, 24837 Schleswig",Schleswig-Holstein,4292407.188796034,3490266.778553714,50000,91.32330976100327,8,4267407.188796034,4317407.188796034,3465266.778553714,3515266.778553714
K000000048,"HELIOS Fachklinik, Klinik für Erwachsenenpsychiatrie und Psychosomatische Medizin",9.5711,54.5223,St. Jürgener Str. 5a,24837,Schleswig,Schleswig-Holstein,"HELIOS Fachklinik, Klinik für Erwachsenenpsychiatrie und Psychosomatische Medizin, St. Jürgener Str. 5a, 24837 Schleswig",Schleswig-Holstein,4293219.924944723,3490762.6663589673,50000,87.44779143753456,8,4268219.924944723,4318219.924944723,3465762.6663589673,3515762.6663589673
K000000049,Margarethen Klinik gemeinnützige GmbH,9.9246,54.6588,Konsul-Lorentzen-Str. 3,24376,Kappeln,Schleswig-Holstein,"Margarethen Klinik gemeinnützige GmbH, Konsul-Lorentzen-Straße 3, 24376 Kappeln",Schleswig-Holstein,4316132.428899661,3505872.7730129953,50000,43.80271484740786,2,4291132.428899661,4341132.428899661,3480872.7730129953,3530872.7730129953
K000000050,Medizinische Klinik Borstel,10.1939,53.8211,Parkallee 35,23845,Borstel,Schleswig-Holstein,"Medizinische Klinik Borstel, Parkallee 35, 23845 Borstel",Schleswig-Holstein,4333771.633819363,3412665.3724599024,50000,0.0,0,4308771.633819363,4358771.633819363,3387665.3724599024,3437665.3724599024
K000000051,Psychiatrisches Krankenhaus Rickling,10.1745,53.9995,Daldorfer Str. 2,24635,Rickling,Schleswig-Holstein,"Psychiatrisches Krankenhaus Rickling, Daldorfer Straße 2, 24635 Rickling",Schleswig-Holstein,4332445.2732399395,3432515.1067521707,50000,0.0,0,4307445.2732399395,4357445.2732399395,3407515.1067521707,3457515.1067521707
K000000052,Psychiatrisches Krankenhaus Rickling (TK Bad Segeberg),10.3036,53.944,Schillerstr. 13a,23795,Bad Segeberg,Schleswig-Holstein,"Psychiatrisches Krankenhaus Rickling (TK Bad Segeberg), Schillerstraße 13a, 23795 Bad Segeberg",Schleswig-Holstein,4340939.052183179,3426366.8596163117,50000,18.578332919525167,7,4315939.052183179,4365939.052183179,3401366.8596163117,3451366.8596163117
K000000053,Klinikum Bad Bramstedt GmbH,9.8943,53.9041,Oskar-Alexander-Str. 26,24576,Bad Bramstedt,Schleswig-Holstein,"Klinikum Bad Bramstedt GmbH, Oskar-Alexander-Straße 26, 24576 Bad Bramstedt",Schleswig-Holstein,4314051.512158837,3421889.906479867,50000,42.3671484414306,7,4289051.512158837,4339051.512158837,3396889.906479867,3446889.906479867
K000000054,SK GmbH-Standort Am Kurpark,10.3083,53.9435,Am Kurpark 1,23795,Bad Segeberg,Schleswig-Holstein,"SK GmbH-Standort Am Kurpark, Am Kurpark 1, 23795 Bad Segeberg",Schleswig-Holstein,4341247.964870047,3426312.5223162314,50000,19.157086146956317,9,4316247.964870047,4366247.964870047,3401312.5223162314,3451312.5223162314
K000000055,SK GmbH-Standort Praxisklinik Norderstedt,9.9945,53.7045,Heidbergstr. 98,22846,Norderstedt,Schleswig-Holstein,"SK GmbH-Standort Praxisklinik Norderstedt, Heidbergstraße 98, 22846 Norderstedt",Schleswig-Holstein,4320636.7318844665,3399672.616779767,50000,92.0916697343705,18,4295636.7318844665,4345636.7318844665,3374672.616779767,3424672.616779767
K000000056,SK GmbH-Standort Allgemeine Klinik,10.3093,53.9414,Krankenhausstr. 2,23795,Bad Segeberg,Schleswig-Holstein,"SK GmbH-Standort Allgemeine Klinik, Krankenhausstraße 2, 23795 Bad Segeberg",Schleswig-Holstein,4341314.653707406,3426079.1081824107,50000,19.472668228925837,9,4316314.653707406,4366314.653707406,3401079.1081824107,3451079.1081824107
K000000057,Klinikum Itzehoe,9.5019,53.9409,Robert-Koch-Str. 2,25524,Itzehoe,Schleswig-Holstein,"Klinikum Itzehoe, Robert-Koch-Str. 2, 25524 Itzehoe",Schleswig-Holstein,4288284.861744386,3426092.5983293597,50000,170.69473526010506,29,4263284.861744386,4313284.861744386,3401092.5983293597,3451092.5983293597
K000000059,Krankenhaus Reinbek St. Adolf-Stift GmbH,10.2407,53.5107,Hamburger Str. 41,21465,Reinbek,Schleswig-Holstein,"Krankenhaus Reinbek St. Adolf-Stift GmbH, Hamburger Straße 41, 21465 Reinbek",Schleswig-Holstein,4336970.413866331,3378132.400189492,50000,120.61888912057351,25,4311970.413866331,4361970.413866331,3353132.400189492,3403132.400189492
K000000060,DRK-Norddeutsches Epilepsiezentrum für Kinder und Jugendliche,10.2094,54.2889,Henry-Dunant-Str. 6 - 10,24223,Schwentinental,Schleswig-Holstein,"DRK-Norddeutsches Epilepsiezentrum für Kinder und Jugendliche, Henry-Dunant-Str. 6 - 10, 24223 Schwentinental",Schleswig-Holstein,4334639.605379865,3464726.544793063,50000,30.276829474137323,15,4309639.605379865,4359639.605379865,3439726.544793063,3489726.544793063
K000000061,Vamed Ostseeklinik Damp,10.0221,54.5862,Seute-Deern-Ring 20,24351,Ostseebad Damp,Schleswig-Holstein,"Vamed Ostseeklinik Damp, Seute-Deern-Ring 20, 24351 Ostseebad Damp",Schleswig-Holstein,4322429.22189624,3497791.387411542,50000,51.10296419174064,10,4297429.22189624,4347429.22189624,3472791.387411542,3522791.387411542
K000000062,Kinderzentrum Pelzerhaken,10.8642,54.0885,Zum Leuchtturm 4,23730,Neustadt in Holstein,Schleswig-Holstein,"Kinderzentrum Pelzerhaken, Zum Leuchtturm 4, 23730 Neustadt in Holstein",Schleswig-Holstein,4377560.389376469,3442743.251241628,50000,36.86184847734207,16,4352560.389376469,4402560.389376469,3417743.251241628,3467743.251241628
K000000063,nordBLICK Augenklinik Bellevue GmbH,10.1488,54.3454,Lindenallee 21/23,24105,Kiel,Schleswig-Holstein,"nordBLICK Augenklinik Bellevue GmbH, Lindenallee 21/23, 24105 Kiel",Schleswig-Holstein,4330679.17187897,3471004.262479976,50000,37.019549408992305,16,4305679.17187897,4355679.17187897,3446004.262479976,3496004.262479976
K000000064,Paracelsus-Nordseeklinik Helgoland,7.8865,54.1786,Invasorenpfad 1040,27498,Helgoland,Schleswig-Holstein,"Paracelsus-Nordseeklinik Helgoland, Invasorenpfad 1040, 27498 Helgoland",Schleswig-Holstein,4182991.6676073777,3454448.090667455,50000,23.06956779963758,1,4157991.6676073777,4207991.667607378,3429448.090667455,3479448.090667455
K000000065,FEK - Friedrich-Ebert-Krankenhaus Neumünster GmbH,9.9928,54.0654,Friesenstr. 11,24534,Neumünster,Schleswig-Holstein,"FEK - Friedrich-Ebert-Krankenhaus Neumünster GmbH, Friesenstraße 11, 24534 Neumünster",Schleswig-Holstein,4320528.499728398,3439834.94005504,50000,24.82471169771965,5,4295528.499728398,4345528.499728398,3414834.94005504,3464834.94005504
K000000066,CURSCHMANN KLINIK der Klinikgruppe Dr. Guth GmbH & Co. KG,10.7836,53.998,Saunaring 6,23669,Timmendorfer Strand,Schleswig-Holstein,"CURSCHMANN KLINIK der Klinikgruppe Dr. Guth GmbH & Co. KG, Saunaring 6, 23669 Timmendorfer Strand",Schleswig-Holstein,4372396.235216148,3432612.5312309735,50000,50.45611595389148,24,4347396.235216148,4397396.235216148,3407612.5312309735,3457612.5312309735
K000000067,Vorwerker Fachklinik Kinder- und Jugendpsychiatrie (stat. Bereich Lübeck),10.681,53.892,Triftstr. 139-143,23554,Lübeck,Schleswig-Holstein,"Vorwerker Fachklinik Kinder- und Jugendpsychiatrie (stat. Bereich Lübeck), Triftstraße 139-143, 23554 Lübeck",Schleswig-Holstein,4365779.556875441,3420748.830191649,50000,63.09552868222372,24,4340779.556875441,4390779.556875441,3395748.830191649,3445748.830191649
K000000068,Vorwerker Fachklinik (Tagesklinik Lübeck),10.681,53.892,Triftstr. 139-143,23554,Lübeck,Schleswig-Holstein,"Vorwerker Fachklinik (Tagesklinik Lübeck), Triftstraße 139-143, 23554 Lübeck",Schleswig-Holstein,4365779.556875441,3420748.830191649,50000,63.09552868222372,24,4340779.556875441,4390779.556875441,3395748.830191649,3445748.830191649
K000000069,Vorwerker Fachklinik (Tagesklinik Büchen),10.6231,53.4726,Lauenburger Str. 39,21514,Büchen,Schleswig-Holstein,"Vorwerker Fachklinik (Tagesklinik Büchen), Lauenburger Straße 39, 21514 Büchen",Schleswig-Holstein,4362378.962985752,3374043.7629233385,50000,129.96345281833104,24,4337378.962985752,4387378.962985752,3349043.7629233385,3399043.7629233385
K000000070,Vorwerker Fachklinik (Tagesklinik Eutin),10.6013,54.1327,Hospitalstr. 22,23701,Eutin,Schleswig-Holstein,"Vorwerker Fachklinik (Tagesklinik Eutin), Hospitalstraße 22, 23701 Eutin",Schleswig-Holstein,4360313.075865087,3447487.6429028427,50000,20.396951668857277,8,4335313.075865087,4385313.075865087,3422487.6429028427,3472487.6429028427
K000000072,Klinik Klosterstraße GmbH,9.9947,54.0787,Klosterstr. 63-65,24536,Neumünster,Schleswig-Holstein,"Klinik Klosterstraße GmbH, Klosterstraße 63-65, 24536 Neumünster",Schleswig-Holstein,4320653.033503845,3441315.0034968043,50000,29.492560853846893,5,4295653.033503845,4345653.033503845,3416315.0034968043,3466315.0034968043
K000000073,Schön Klinik Neustadt,10.8291,54.0908,Am Kiebitzberg 10,23730,Neustadt in Holstein,Schleswig-Holstein,"Schön Klinik Neustadt, Am Kiebitzberg 10, 23730 Neustadt in Holstein",Schleswig-Holstein,4375260.29568337,3442972.316388374,50000,36.61498105990167,16,4350260.29568337,4400260.29568337,3417972.316388374,3467972.316388374
K000000074,Westküstenklinikum Heide,9.0804,54.199,Esmarchstr. 50,25746,Heide,Schleswig-Holstein,"Westküstenklinikum Heide, Esmarchstraße 50, 25746 Heide",Schleswig-Holstein,4260972.813930081,3455083.9129554722,50000,128.60627143939072,13,4235972.813930081,4285972.813930081,3430083.9129554722,3480083.9129554722
K000000075,Westküstenklinikum Brunsbüttel,9.146,53.8997,Delbrückstr. 2,25541,Brunsbüttel,Schleswig-Holstein,"Westküstenklinikum Brunsbüttel, Delbrückstrasse 2, 25541 Brunsbüttel",Schleswig-Holstein,4264855.527723712,3421726.2140651555,50000,195.4188649731058,33,4239855.527723712,4289855.527723712,3396726.2140651555,3446726.2140651555
K000000076,Praxisklinik Kronshagen,10.098,54.3376,Eichkoppelweg 74,24119,Kronshagen,Schleswig-Holstein,"Praxisklinik Kronshagen, Eichkoppelweg 74, 24119 Kronshagen",Schleswig-Holstein,4327375.923467798,3470130.6155361985,50000,49.80629529589658,19,4302375.923467798,4352375.923467798,3445130.6155361985,3495130.6155361985
K000000077,Krankenhaus Rotes Kreuz Lübeck -Geriatriezentrum-,10.7058,53.8754,Marlistr. 10,23566,Lübeck,Schleswig-Holstein,"Krankenhaus Rotes Kreuz Lübeck -Geriatriezentrum-, Marlistr. 10, 23566 Lübeck",Schleswig-Holstein,4367428.500483857,3418917.207761716,50000,65.0517763447631,24,4342428.500483857,4392428.500483857,3393917.207761716,3443917.207761716
K000000078,Asklepios Klinik Bad Oldesloe,10.3637,53.8126,Schützenstaße 55,23843,Bad Oldesloe,Schleswig-Holstein,"Asklepios Klinik Bad Oldesloe, Schützenstaße 55, 23843 Bad Oldesloe",Schleswig-Holstein,4344960.602428455,3411762.51389132,50000,43.97590807029975,12,4319960.602428455,4369960.602428455,3386762.51389132,3436762.51389132
K000000079,Schön Klinik Bad Bramstedt,9.8884,53.9047,Birkenweg 10,24576,Bad Bramstedt,Schleswig-Holstein,"Schön Klinik Bad Bramstedt, Birkenweg 10, 24576 Bad Bramstedt",Schleswig-Holstein,4313663.763755817,3421957.258576208,50000,43.482088477889654,8,4288663.763755817,4338663.763755817,3396957.258576208,3446957.258576208
K000000080,Klinik für Geriatrie Ratzeburg GmbH,10.7692,53.6824,Röpersberg 47,23909,Ratzeburg,Schleswig-Holstein,"Klinik für Geriatrie Ratzeburg GmbH, Röpersberg 47, 23909 Ratzeburg",Schleswig-Holstein,4371830.038958823,3397482.9701400576,50000,71.19781207380836,17,4346830.038958823,4396830.038958823,3372482.9701400576,3422482.9701400576
K000000082,Paracelsus-Klinik Henstedt-Ulzburg,10.0052,53.7483,Wilstedter Str. 134,24558,Henstedt-Ulzburg,Schleswig-Holstein,"Henstedt-Ulzburg, Wilstedter Straße 134, 24558 Henstedt-Ulzburg",Schleswig-Holstein,4321343.099009675,3404546.837882907,50000,79.68897653354465,19,4296343.099009675,4346343.099009675,3379546.837882907,3429546.837882907
K000000083,Curtius Klinik,10.5659,54.1714,Neue Kampstr. 2,23714,Bad Malente,Schleswig-Holstein,"Curtius Klinik, Neue Kampstrasse 2, 23714 Bad Malente",Schleswig-Holstein,4357964.443784299,3451775.540590252,50000,4.257273568543511,2,4332964.443784299,4382964.443784299,3426775.540590252,3476775.540590252
K000000084,Klinik Manhagen,10.2571,53.6629,Sieker Landstr. 19,22927,Großhansdorf,Schleswig-Holstein,"Klinik Manhagen, Sieker Landstraße 19, 22927 Großhansdorf",Schleswig-Holstein,4337997.730715862,3395073.3544413997,50000,55.91571189726613,9,4312997.730715862,4362997.730715862,3370073.3544413997,3420073.3544413997
K000000085,Johanniter Klinik für Geriatrie Geesthacht,10.3826,53.4266,Johannes-Ritter-Str. 100,21502,Geesthacht,Schleswig-Holstein,"Johanniter Klinik für Geriatrie Geesthacht, Johannes-Ritter-Str. 100, 21502 Geesthacht",Schleswig-Holstein,4346435.326127027,3368814.087482195,50000,152.23319514991172,26,4321435.326127027,4371435.326127027,3343814.087482195,3393814.087482195
K000000086,HELIOS Klinik Kiel,10.1164,54.3046,Hamburger Chaussee 77,24113,Kiel,Schleswig-Holstein,"HELIOS Klinik Kiel, Hamburger Chaussee 77, 24113 Kiel",Schleswig-Holstein,4328579.04883123,3466460.047375165,50000,38.496688365202104,17,4303579.04883123,4353579.04883123,3441460.047375165,3491460.047375165
K000000087,"VAMED Klinik Geesthacht: Akutbereich, enthalten sind nur die Daten der Patientinnen/Patienten der besonderen Einrichtung, ohne Patientinnen/Patienten aus dem Reha-Bereich",10.3826,53.4266,Johannes-Ritter-Str. 100,21502,Geesthacht,Schleswig-Holstein,"VAMED Klinik Geesthacht: Akutbereich, enthalten sind nur die Daten der Patientinnen/Patienten der besonderen Einrichtung, ohne Patientinnen/Patienten aus dem Reha-Bereich, Johannes-Ritter-Straße 100, 21502 Geesthacht",Schleswig-Holstein,4346435.326127027,3368814.087482195,50000,152.23319514991172,26,4321435.326127027,4371435.326127027,3343814.087482195,3393814.087482195
K000000088,"UNIVERSITÄTSKLINIKUM Schleswig-Holstein, Campus Kiel",10.1419,54.3298,Arnold-Heller-Str. 3,24105,Kiel,Schleswig-Holstein,"UNIVERSITÄTSKLINIKUM Schleswig-Holstein, Campus Kiel, Arnold-Heller-Straße 3, 24105 Kiel",Schleswig-Holstein,4330233.806547816,3469267.3455557753,50000,35.44220765639957,16,4305233.806547816,4355233.806547816,3444267.3455557753,3494267.3455557753
K000000089,"UNIVERSITÄTSKLINIKUM Schleswig-Holstein, Campus Lübeck",10.7093,53.8399,Ratzeburger Allee 160,23538,Lübeck,Schleswig-Holstein,"UNIVERSITÄTSKLINIKUM Schleswig-Holstein, Campus Lübeck, Ratzeburger Allee 160, 23538 Lübeck",Schleswig-Holstein,4367697.968344837,3414969.046453106,50000,69.65448239600367,24,4342697.968344837,4392697.968344837,3389969.046453106,3439969.046453106
K000000090,Zentrum für Integrative Psychiatrie - ZIP gGmbH,10.1438,54.3424,Niemannsweg 147,24105,Kiel,Schleswig-Holstein,"Zentrum für Integrative Psychiatrie - ZIP gGmbH, Niemannsweg 147, 24105 Kiel",Schleswig-Holstein,4330354.607008169,3470669.7555588447,50000,37.3012180777153,16,4305354.607008169,4355354.607008169,3445669.7555588447,3495669.7555588447
K000000091,Ameos Klinika Lübeck,10.692,53.8489,Weidenweg 9- 15,23562,Lübeck,Schleswig-Holstein,"Ameos Klinika Lübeck, Weidenweg 9- 15, 23562 Lübeck",Schleswig-Holstein,4366549.329595775,3415959.5442072907,50000,68.66039016477798,24,4341549.329595775,4391549.329595775,3390959.5442072907,3440959.5442072907
K000000092,"Sana Kliniken Lübeck GmbH, Krankenhaus Süd",10.6883,53.8492,Kronsforder Allee 71-73,23560,Lübeck,Schleswig-Holstein,"Sana Kliniken Lübeck GmbH, Krankenhaus Süd, Kronsforder Allee 71-73, 23560 Lübeck",Schleswig-Holstein,4366305.472248047,3415990.6076016733,50000,68.62927357940912,24,4341305.472248047,4391305.472248047,3390990.6076016733,3440990.6076016733
K000000093,Zentrum für Integratrive Psychiatrie - ZIP gGmbH,10.7037,53.834,Ratzeburger Allee 160,23538,Lübeck,Schleswig-Holstein,"Zentrum für Integratrive Psychiatrie - ZIP gGmbH, Ratzeburger Allee 160, 23538 Lübeck",Schleswig-Holstein,4367335.765349383,3414308.903165477,50000,70.33573824083248,24,4342335.765349383,4392335.765349383,3389308.903165477,3439308.903165477
K000000094,Psychiatrische Tagesklinik Neumünster gGmbH,9.988,54.0745,Parkstr. 17,24534,Neumünster,Schleswig-Holstein,"Psychiatrische Tagesklinik Neumünster gGmbH, Parkstr. 17, 24534 Neumünster",Schleswig-Holstein,4320214.336764236,3440847.664092621,50000,30.694054342865567,5,4295214.336764236,4345214.336764236,3415847.664092621,3465847.664092621
K000000095,Universitätsklinikum Hamburg-Eppendorf,9.9783,53.5903,Martinistr. 52,20246,Hamburg,Hamburg,"Universitätsklinikum Hamburg-Eppendorf, Martinistraße 52, 20246 Hamburg",Hamburg,4319562.888342086,3386964.249683469,50000,149.47202036497285,24,4294562.888342086,4344562.888342086,3361964.249683469,3411964.249683469
K000000096,Asklepios Klinik St. Georg,10.0186,53.5585,Lohmühlenstr. 5,20099,Hamburg,Hamburg,"Asklepios Klinik St. Georg, Lohmühlenstr. 5, 20099 Hamburg",Hamburg,4322232.729148497,3383425.3861594987,50000,140.80919697907075,27,4297232.729148497,4347232.729148497,3358425.3861594987,3408425.3861594987
K000000097,Asklepios Klinik Barmbek,10.0361,53.6065,Rübenkamp 220,22291,Hamburg,Hamburg,"Asklepios Klinik Barmbek, Rübenkamp 220, 22291 Hamburg",Hamburg,4323389.861911492,3388767.419120846,50000,123.27179512373571,19,4298389.861911492,4348389.861911492,3363767.419120846,3413767.419120846
K000000098,Schön Klinik Hamburg Eilbek,10.0527,53.5776,Dehnhaide 120,22081,Hamburg,Hamburg,"Schön Klinik Hamburg Eilbek, Dehnhaide 120, 22081 Hamburg",Hamburg,4324491.1681827,3385552.0060616676,50000,132.0992122341555,22,4299491.1681827,4349491.1681827,3360552.0060616676,3410552.0060616676
K000000099,Asklepios Klinik Altona,9.9011,53.5549,Paul-Ehrlich-Str. 1,22763,Hamburg,Hamburg,"Asklepios Klinik Altona, Paul-Ehrlich-Straße 1, 22763 Hamburg",Hamburg,4314444.776362332,3383029.079228064,50000,178.60717956354728,32,4289444.776362332,4339444.776362332,3358029.079228064,3408029.079228064
K000000100,Asklepios Klinikum Harburg,9.9501,53.4611,Eißendorfer Pferdeweg 52,21075,Hamburg,Hamburg,"Asklepios Klinikum Harburg, Eißendorfer Pferdeweg 52, 21075 Hamburg",Hamburg,4317685.291994511,3372587.4047006005,50000,153.43239460277312,26,4292685.291994511,4342685.291994511,3347587.4047006005,3397587.4047006005
K000000101,Asklepios  Westklinikum Hamburg GmbH,9.7737,53.583,Suurheid 20,22559,Hamburg,Hamburg,"Asklepios  Westklinikum Hamburg GmbH, Suurheid 20, 22559 Hamburg",Hamburg,4306010.438906847,3386175.0603040187,50000,206.17887946616653,41,4281010.438906847,4331010.438906847,3361175.0603040187,3411175.0603040187
K000000102,Asklepios Klinik Wandsbek,10.0884,53.5698,Alphonsstr. 14,22043,Hamburg,Hamburg,"Asklepios Klinik Wandsbek, Alphonsstraße 14, 22043 Hamburg",Hamburg,4326857.223491121,3384686.2987552956,50000,126.69190267875457,22,4301857.223491121,4351857.223491121,3359686.2987552956,3409686.2987552956
K000000103,Bundeswehrkrankenhaus Hamburg,10.0747,53.594,Lesserstr. 180,22049,Hamburg,Hamburg,"Bundeswehrkrankenhaus Hamburg, Lesserstraße 180, 22049 Hamburg",Hamburg,4325946.6773606725,3387378.3311831728,50000,121.25968133136314,19,4300946.6773606725,4350946.6773606725,3362378.3311831728,3412378.3311831728
K000000104,Albertinen Krankenhaus / Albertinen Haus gemeinnützige GmbH,9.9049,53.6305,Süntelstr. 11a,22457,Hamburg,Hamburg,"Albertinen Krankenhaus / Albertinen Haus gemeinnützige GmbH, Süntelstraße 11a, 22457 Hamburg",Hamburg,4314707.819783035,3391441.7521284763,50000,160.7365628597918,29,4289707.819783035,4339707.819783035,3366441.7521284763,3416441.7521284763
K000000105,AKK Altonaer Kinderkrankenhaus gGmbH,9.9134,53.5528,Bleickenallee 38,22763,Hamburg,Hamburg,"AKK Altonaer Kinderkrankenhaus gGmbH, Bleickenallee 38, 22763 Hamburg",Hamburg,4315259.753703934,3382794.34189652,50000,172.58791272000573,29,4290259.753703934,4340259.753703934,3357794.34189652,3407794.34189652
K000000106,Ev. Amalie Sieveking - Krankenhaus,10.1493,53.6409,Haselkamp 33,22359,Hamburg,Hamburg,"Ev. Amalie Sieveking - Krankenhaus, Haselkamp 33, 22359 Hamburg",Hamburg,4330875.840577923,3392605.142693367,50000,72.19501917233634,16,4305875.840577923,4355875.840577923,3367605.142693367,3417605.142693367
K000000107,BG Klinikum Hamburg gGmbH,10.1738,53.507,Bergedorfer Str. 10,21033,Hamburg,Hamburg,"BG Klinikum Hamburg gGmbH, Bergedorfer Straße 10, 21033 Hamburg",Hamburg,4332532.6179091185,3377707.9686900447,50000,110.39042029809403,20,4307532.6179091185,4357532.6179091185,3352707.9686900447,3402707.9686900447
K000000108,Evangelisches Krankenhaus Alsterdorf gemeinnützige GmbH,10.0245,53.6141,Elisabeth-Flügge-Str. 1,22337,Hamburg,Hamburg,"Evangelisches Krankenhaus Alsterdorf gemeinnützige GmbH, Elisabeth-Flügge-Straße 1, 22337 Hamburg",Hamburg,4322621.639028757,3389612.851480095,50000,124.3891479116294,21,4297621.639028757,4347621.639028757,3364612.851480095,3414612.851480095
K000000110,Heinrich Sengelmann Tagesklinik Ahrensburg,10.2415,53.6728,Carl-Barckmann-Str. 5,22926,Ahrensburg,Schleswig-Holstein,"Heinrich Sengelmann Tagesklinik Ahrensburg, Carl-Barckmann-Straße 5, 22926 Ahrensburg",Schleswig-Holstein,4336962.648865514,3396171.508352434,50000,38.79178030254263,5,4311962.648865514,4361962.648865514,3371171.508352434,3421171.508352434
K000000111,Heinrich Sengelmann Tagesklinik Reinbek,10.246,53.5215,Kinauweg 9,21465,Reinbek,Schleswig-Holstein,"Heinrich Sengelmann Tagesklinik Reinbek, Kinauweg 9, 21465 Reinbek",Schleswig-Holstein,4337317.940460046,3379335.4308625506,50000,120.2291652946597,22,4312317.940460046,4362317.940460046,3354335.4308625506,3404335.4308625506
K000000112,Heinrich Sengelmann Krankenhaus,10.1536,53.7575,Kayhuder Str. 65,23863,Bargfeld-Stegen,Schleswig-Holstein,"Heinrich Sengelmann Krankenhaus, Kayhuder Straße 65, 23863 Bargfeld-Stegen",Schleswig-Holstein,4331132.408163484,3405581.374836209,50000,24.193775039628733,10,4306132.408163484,4356132.408163484,3380581.374836209,3430581.374836209
K000000113,Israelitisches Krankenhaus in Hamburg,9.9912,53.606,Orchideenstieg 14,22297,Hamburg,Hamburg,"Israelitisches Krankenhaus in Hamburg, Orchideenstieg 14, 22297 Hamburg",Hamburg,4320417.422917345,3388711.217789853,50000,136.43418396877684,24,4295417.422917345,4345417.422917345,3363711.217789853,3413711.217789853
K000000114,Katholisches Kinderkrankenhaus Wilhelmstift gGmbH,10.164,53.5864,Liliencronstr. 130,22149,Hamburg,Hamburg,"Katholisches Kinderkrankenhaus Wilhelmstift gGmbH, Liliencronstraße 130, 22149 Hamburg",Hamburg,4331862.1038780585,3386542.3151300726,50000,98.4973352312941,18,4306862.1038780585,4356862.1038780585,3361542.3151300726,3411542.3151300726
K000000115,Helios ENDO-Klinik Hamburg,9.9545,53.5508,Holstenstr. 2,22767,Hamburg,Hamburg,"Helios ENDO-Klinik Hamburg, Holstenstraße 2, 22767 Hamburg",Hamburg,4317983.9087515855,3382569.2940207454,50000,160.19476917102773,27,4292983.9087515855,4342983.9087515855,3357569.2940207454,3407569.2940207454
K000000116,Krankenhaus Jerusalem,9.9665,53.5694,Moorkamp 2-6,20357,Hamburg,Hamburg,"Krankenhaus Jerusalem, Moorkamp 2-6, 20357 Hamburg",Hamburg,4318780.32945781,3384638.7276142896,50000,158.55359491776585,27,4293780.32945781,4343780.32945781,3359638.7276142896,3409638.7276142896
K000000117,HELIOS Mariahilf Klinik Hamburg,9.938,53.4707,Stader Str. 203 c,21075,Hamburg,Hamburg,"HELIOS Mariahilf Klinik Hamburg, Stader Straße 203 c, 21075 Hamburg",Hamburg,4316882.449239803,3373656.339455688,50000,155.39031381957608,25,4291882.449239803,4341882.449239803,3348656.339455688,3398656.339455688
K000000118,Kath. Marienkrankenhaus gemeinnützige GmbH,10.0308,53.5591,Alfredstr. 9,22087,Hamburg,Hamburg,"Kath. Marienkrankenhaus gemeinnützige GmbH, Alfredstraße 9, 22087 Hamburg",Hamburg,4323041.264670396,3383492.4314984325,50000,139.06951408037258,27,4298041.264670396,4348041.264670396,3358492.4314984325,3408492.4314984325
K000000119,Wilhelmsburger Krankenhaus Groß-Sand,9.986,53.5035,Groß-Sand 3,21107,Hamburg,Hamburg,"Wilhelmsburger Krankenhaus Groß-Sand, Groß-Sand 3, 21107 Hamburg",Hamburg,4320070.9433054235,3377304.7486052243,50000,147.55311819672266,26,4295070.9433054235,4345070.9433054235,3352304.7486052243,3402304.7486052243
K000000120,KLINIK DR. GUTH der Klinikgruppe Dr. Guth GmbH & Co. KG,9.854,53.5571,Jürgensallee 46-48,22609,Hamburg,Hamburg,"KLINIK DR. GUTH der Klinikgruppe Dr. Guth GmbH & Co. KG, Jürgensallee 46-48, 22609 Hamburg",Hamburg,4311323.428820921,3383279.1738272435,50000,192.2896480222553,36,4286323.428820921,4336323.428820921,3358279.1738272435,3408279.1738272435
K000000121,Krankenhaus Tabea,9.791,53.5646,Kösterbergstr. 32,22587,Hamburg,Hamburg,"Krankenhaus Tabea, Kösterbergstr. 32, 22587 Hamburg",Hamburg,4307150.369000316,3384124.0163290543,50000,200.75024328415887,41,4282150.369000316,4332150.369000316,3359124.0163290543,3409124.0163290543
K000000122,PRAXISKLINIK MÜMMELMANNSBERG der Klinikgruppe Dr. Guth GmbH & Co. KG,10.1473,53.5273,Oskar-Schlemmer-Str. 9-17,22115,Hamburg,Hamburg,"PRAXISKLINIK MÜMMELMANNSBERG der Klinikgruppe Dr. Guth GmbH & Co. KG, Oskar-Schlemmer-Str. 9-17, 22115 Hamburg",Hamburg,4330769.551332325,3379963.1171568707,50000,115.2896617381112,25,4305769.551332325,4355769.551332325,3354963.1171568707,3404963.1171568707
K000000124,Asklepios Klinik Nord - Heidberg,10.0286,53.6746,Tangstedter Landstr. 400,22417,Hamburg,Hamburg,"Asklepios Klinik Nord - Heidberg, Tangstedter Landstraße 400, 22417 Hamburg",Hamburg,4322890.324573078,3396345.5980059896,50000,89.67283527349007,15,4297890.324573078,4347890.324573078,3371345.5980059896,3421345.5980059896
K000000125,Praxis-Klinik Bergedorf,10.2062,53.494,Alte Holstenstr. 2 und 16,21031,Hamburg,Hamburg,"Praxis-Klinik Bergedorf, Alte Holstenstraße 2 und 16, 21031 Hamburg",Hamburg,4334686.6983639775,3376266.927943968,50000,114.39259247193463,24,4309686.6983639775,4359686.6983639775,3351266.927943968,3401266.927943968
K000000126,Bethesda Krankenhaus Bergedorf gGmbH,10.2366,53.4858,Glindersweg 80,21029,Hamburg,Hamburg,"Bethesda Krankenhaus Bergedorf gGmbH, Glindersweg 80, 21029 Hamburg",Hamburg,4336707.528478974,3375360.572211593,50000,122.6309317234294,25,4311707.528478974,4361707.528478974,3350360.572211593,3400360.572211593
K000000127,Universitäres Herz- und Gefäßzentrum UKE Hamburg GmbH,9.9739,53.5907,Martinistr. 52,20246,Hamburg,Hamburg,"Universitäres Herz- und Gefäßzentrum UKE Hamburg GmbH, Martinistraße 52, 20246 Hamburg",Hamburg,4319271.508669494,3387008.8590520755,50000,151.01085257343036,24,4294271.508669494,4344271.508669494,3362008.8590520755,3412008.8590520755
K000000128,Martini-Klinik am UKE GmbH,9.9783,53.5903,Martinistr. 52,20246,Hamburg,Hamburg,"Martini-Klinik am UKE GmbH, Martinistraße 52, 20246 Hamburg",Hamburg,4319562.888342086,3386964.249683469,50000,149.47202036497285,24,4294562.888342086,4344562.888342086,3361964.249683469,3411964.249683469
K000000129,Facharztklinik Hamburg,9.9726,53.5883,Martinistr. 78,20251,Hamburg,Hamburg,"Facharztklinik Hamburg, Martinistrasse 78, 20251 Hamburg",Hamburg,4319185.313030573,3386741.8109767195,50000,151.9383805528721,24,4294185.313030573,4344185.313030573,3361741.8109767195,3411741.8109767195
K000000130,AGAPLESION DIAKONIEKLINIKUM HAMBURG,9.9669,53.5723,Hohe Weide 17,20259,Hamburg,Hamburg,"AGAPLESION DIAKONIEKLINIKUM HAMBURG, Hohe Weide 17, 20259 Hamburg",Hamburg,4318806.982146049,3384961.436733425,50000,158.46349396315668,27,4293806.982146049,4343806.982146049,3359961.436733425,3409961.436733425
K000000131,Helios Klinik Bad Gandersheim,10.027,51.8735,Albert-Rohloff-Str. 2,37581,Bad Gandersheim,Niedersachsen,"Helios Klinik Bad Gandersheim, Albert-Rohloff-Straße 2, 37581 Bad Gandersheim",Niedersachsen,4322859.525236419,3195925.162090934,50000,0.0,0,4297859.525236419,4347859.525236419,3170925.162090934,3220925.162090934
K000000132,Asklepios Harzklinik Bad Harzburg,10.5754,51.8862,Ilsenburger Str. 95,38667,Bad Harzburg,Niedersachsen,"Asklepios Harzklinik Bad Harzburg, Ilsenburger Straße 95, 38667 Bad Harzburg",Niedersachsen,4360616.9156150175,3197494.1854714686,50000,0.0,0,4335616.9156150175,4385616.9156150175,3172494.1854714686,3222494.1854714686
K000000133,Klinik Dr. Muschinsky,10.4687,51.6238,Wiesenbek 7 - 10,37431,Bad Lauterberg,Niedersachsen,"Klinik Dr. Muschinsky, Wiesenbek 7 - 10, 37431 Bad Lauterberg",Niedersachsen,4353458.19962411,3168246.7089768685,50000,0.0,0,4328458.19962411,4378458.19962411,3143246.7089768685,3193246.7089768685
K000000134,Diabeteszentrum Bad Lauterberg,10.4716,51.628,Kirchberg 21,37431,Bad Lauterberg,Niedersachsen,"Diabeteszentrum Bad Lauterberg, Kirchberg 21, 37431 Bad Lauterberg",Niedersachsen,4353656.009221937,3168715.288178272,50000,0.0,0,4328656.009221937,4378656.009221937,3143715.288178272,3193715.288178272
K000000135,Städtisches Klinikum Braunschweig gGmbH,10.5101,52.2678,Freisestr. 9/10,38118,Braunschweig,Niedersachsen,"Städtisches Klinikum Braunschweig gGmbH, Freisestraße 9/10, 38118 Braunschweig",Niedersachsen,4355823.1663072845,3239919.9291671915,50000,75.12542865290872,14,4330823.1663072845,4380823.1663072845,3214919.9291671915,3264919.9291671915
K000000136,Krankenhaus Marienstift,10.545,52.2585,Helmstedter Str. 35,38102,Braunschweig,Niedersachsen,"Krankenhaus Marienstift, Helmstedter Str. 35, 38102 Braunschweig",Niedersachsen,4358213.417368327,3238902.3873614036,50000,76.02524934481706,12,4333213.417368327,4383213.417368327,3213902.3873614036,3263902.3873614036
K000000138,Stiftung Herzogin Elisabeth Hospital,10.5266,52.2331,Leipziger Str. 24,38124,Braunschweig,Niedersachsen,"Stiftung Herzogin Elisabeth Hospital, Leipziger Str. 24, 38124 Braunschweig",Niedersachsen,4356977.567180944,3236066.917619766,50000,73.34481867158135,12,4331977.567180944,4381977.567180944,3211066.917619766,3261066.917619766
K000000139,Kirchberg-Klinik Bad Lauterberg,10.4688,51.626,Kirchberg 7-11,37431,Bad Lauterberg,Niedersachsen,"Kirchberg-Klinik Bad Lauterberg, Kirchberg 7-11, 37431 Bad Lauterberg",Niedersachsen,4353463.553907723,3168491.522097729,50000,0.0,0,4328463.553907723,4378463.553907723,3143491.522097729,3193491.522097729
K000000140,Asklepios Harzklinik Clausthal-Zellerfeld,10.3336,51.8078,Windmühlenstr. 1,38678,Clausthal-Zellerfeld,Niedersachsen,"Asklepios Harzklinik Clausthal-Zellerfeld, Windmühlenstraße 1, 38678 Clausthal-Zellerfeld",Niedersachsen,4344008.831419092,3188667.3515076716,50000,0.0,0,4319008.831419092,4369008.831419092,3163667.3515076716,3213667.3515076716
K000000141,St. Martini GmbH Krankenhaus Duderstadt,10.2467,51.5167,Göttinger Str. 34,37115,Duderstadt,Niedersachsen,"St. Martini GmbH Krankenhaus Duderstadt, Göttinger Str. 34, 37115 Duderstadt",Niedersachsen,4338124.671527733,3156255.552760158,50000,11.890803004169836,1,4313124.671527733,4363124.671527733,3131255.552760158,3181255.552760158
K000000142,Einbecker BürgerSpital GmbH,9.8686,51.8336,Andershäuser Str. 8,37574,Einbeck,Niedersachsen,"Einbecker BürgerSpital GmbH, Andershäuser Str. 8, 37574 Einbeck",Niedersachsen,4311942.311863914,3191493.511859321,50000,15.426695477564344,5,4286942.311863914,4336942.311863914,3166493.511859321,3216493.511859321
K000000143,HELIOS Klinikum Gifhorn GmbH,10.5476,52.4969,Campus 6,38518,Gifhorn,Niedersachsen,"HELIOS Klinikum Gifhorn GmbH, Campus 6, 38518 Gifhorn",Niedersachsen,4358190.5533875,3265430.5859414637,50000,62.06730137279892,12,4333190.5533875,4383190.5533875,3240430.5859414637,3290430.5859414637
K000000144,Universitätsmedizin Göttingen,9.9427,51.551,Robert-Koch-Str. 40,37075,Göttingen,Niedersachsen,"Universitätsmedizin Göttingen, Robert-Koch-Straße 40, 37075 Göttingen",Niedersachsen,4317025.504755013,3160044.3508091765,50000,62.9468055157497,28,4292025.504755013,4342025.504755013,3135044.3508091765,3185044.3508091765
K000000145,Asklepios Fachklinikum Göttingen,9.9194,51.5251,Rosdorfer Weg 70,37081,Göttingen,Niedersachsen,"Asklepios Fachklinikum Göttingen, Rosdorfer Weg 70, 37081 Göttingen",Niedersachsen,4315406.172960525,3157164.280108587,50000,85.07933774406806,31,4290406.172960525,4340406.172960525,3132164.280108587,3182164.280108587
K000000146,Evangelisches Krankenhaus Göttingen-Weende gGmbH,9.9441,51.5545,An der Lutter 24,37075,Göttingen,Niedersachsen,"Evangelisches Krankenhaus Göttingen-Weende gGmbH, An der Lutter 24, 37075 Göttingen",Niedersachsen,4317122.910569483,3160433.681704938,50000,62.2801441958447,28,4292122.910569483,4342122.910569483,3135433.681704938,3185433.681704938
K000000147,Asklepios Harzklinik Goslar,10.4425,51.9284,Kösliner Str. 12,38642,Goslar,Niedersachsen,"Asklepios Harzklinik Goslar, Kösliner Straße 12, 38642 Goslar",Niedersachsen,4351438.231367925,3202125.664561551,50000,0.0,0,4326438.231367925,4376438.231367925,3177125.664561551,3227125.664561551
K000000148,Klinikum Hann. Münden,9.636,51.4097,Vogelsang 105,34346,Hann. Münden,Niedersachsen,"Klinikum Hann. Münden, Vogelsang 105, 34346 Hann. Münden",Niedersachsen,4295673.801488304,3144385.224971038,50000,146.56545041564232,61,4270673.801488304,4320673.801488304,3119385.224971038,3169385.224971038
K000000149,HELIOS St. Marienberg Klinik Helmstedt,10.9998,52.2317,Conringstr. 26,38350,Helmstedt,Niedersachsen,"HELIOS St. Marienberg Klinik Helmstedt, Conringstraße 26, 38350 Helmstedt",Niedersachsen,4389307.173254277,3236249.901277971,50000,46.431608900717954,3,4364307.173254277,4414307.173254277,3211249.901277971,3261249.901277971
K000000150,AWO Psychiatriezentrum,10.8111,52.246,Vor dem Kaiserdom 10,38154,Königslutter am Elm,Niedersachsen,"AWO Psychiatriezentrum, Vor dem Kaiserdom 10, 38154 Königslutter am Elm",Niedersachsen,4376397.940869461,3237680.7280659243,50000,48.354396646763135,9,4351397.940869461,4401397.940869461,3212680.7280659243,3262680.7280659243
K000000151,"DR. FONTHEIM, Klinik für Psychiatrie, Psychotherapie und Psychosomatik",10.4313,52.023,Lindenstr. 15,38704,Liebenburg,Niedersachsen,"DR. FONTHEIM, Klinik für Psychiatrie, Psychotherapie und Psychosomatik, Lindenstraße 15, 38704 Liebenburg",Niedersachsen,4350605.459274378,3212646.744366468,50000,11.168583437916752,1,4325605.459274378,4375605.459274378,3187646.744366468,3237646.744366468
K000000152,HELIOS Albert-Schweitzer-Klinik Northeim [NOM],9.9783,51.7299,Albert-Schweitzer-Weg 1,37154,Northeim,Niedersachsen,"HELIOS Albert-Schweitzer-Klinik Northeim [NOM], Albert-Schweitzer-Weg 1, 37154 Northeim",Niedersachsen,4319500.737985978,3179947.555276049,50000,1.9729038673718091,1,4294500.737985978,4344500.737985978,3154947.555276049,3204947.555276049
K000000153,Helios Klinik Herzberg/Osterode,10.3289,51.6629,Dr.-Frössel-Allee 1,37412,Herzberg am Harz,Niedersachsen,"Helios Klinik Herzberg/Osterode, Dr.-Frössel-Allee 1, 37412 Herzberg am Harz",Niedersachsen,4343757.335659082,3172544.0708346423,50000,0.0,0,4318757.335659082,4368757.335659082,3147544.0708346423,3197544.0708346423
K000000154,Klinikum Peine gGmbH,10.2371,52.3032,Virchowstr. 8h,31226,Peine,Niedersachsen,"Klinikum Peine gGmbH, Virchowstraße 8h, 31226 Peine",Niedersachsen,4337173.432933617,3243763.3280922673,50000,89.12735907297557,17,4312173.432933617,4362173.432933617,3218763.3280922673,3268763.3280922673
K000000155,Asklepios Fachklinikum Tiefenbrunn,9.8699,51.4994,Tiefenbrunn _,37124,Rosdorf,Niedersachsen,"Asklepios Fachklinikum Tiefenbrunn, Tiefenbrunn _, 37124 Rosdorf",Niedersachsen,4311965.675240987,3154309.907922691,50000,110.2139290718776,37,4286965.675240987,4336965.675240987,3129309.907922691,3179309.907922691
K000000156,St. Elisabeth-Krankenhaus Salzgitter,10.3711,52.0454,Liebenhaller Str. 20,38259,Salzgitter,Niedersachsen,"St. Elisabeth-Krankenhaus Salzgitter, Liebenhaller Str. 20, 38259 Salzgitter",Niedersachsen,4346460.517987481,3215116.373493704,50000,13.686052680893388,1,4321460.517987481,4371460.517987481,3190116.373493704,3240116.373493704
K000000157,Helios Klinikum Salzgitter GmbH,10.3195,52.1549,Kattowitzer Str. 191,38226,Salzgitter,Niedersachsen,"Helios Klinikum Salzgitter GmbH, Kattowitzer Str. 191, 38226 Salzgitter",Niedersachsen,4342866.812906244,3227283.457028864,50000,69.75154298495626,13,4317866.812906244,4367866.812906244,3202283.457028864,3252283.457028864
K000000158,Helios Klinik Wittingen GmbH,10.739,52.7304,Gustav-Dobberkau-Str. 5,29378,Wittingen,Niedersachsen,"Helios Klinik Wittingen GmbH, Gustav-Dobberkau-Straße 5, 29378 Wittingen",Niedersachsen,4370923.617321948,3291527.3150086016,50000,0.0,0,4345923.617321948,4395923.617321948,3266527.3150086016,3316527.3150086016
K000000159,Städtisches Klinikum Wolfenbüttel gGmbH,10.5331,52.1801,Alter Weg 80,38302,Wolfenbüttel,Niedersachsen,"Städtisches Klinikum Wolfenbüttel gGmbH, Alter Weg 80, 38302 Wolfenbüttel",Niedersachsen,4357464.93484512,3230172.937461161,50000,53.33978797604243,10,4332464.93484512,4382464.93484512,3205172.937461161,3255172.937461161
K000000160,Klinikum Wolfsburg,10.7688,52.4132,Sauerbruchstr. 7,38440,Wolfsburg,Niedersachsen,"Klinikum Wolfsburg, Sauerbruchstraße 7, 38440 Wolfsburg",Niedersachsen,4373311.772773199,3256253.262389895,50000,69.05008991686854,10,4348311.772773199,4398311.772773199,3231253.262389895,3281253.262389895
K000000161,Venenzentrum Braunschweig,10.5439,52.2633,Kastanienallee 18-19,38102,Braunschweig,Niedersachsen,"Venenzentrum Braunschweig, Kastanienallee 18-19, 38102 Braunschweig",Niedersachsen,4358134.30671181,3239435.916242878,50000,76.06215307562064,12,4333134.30671181,4383134.30671181,3214435.916242878,3264435.916242878
K000000162,Asklepios Kliniken Schildautal,10.2169,51.8832,Karl-Herold-Str. 1,38723,Seesen,Niedersachsen,"Asklepios Kliniken Schildautal, Karl-Herold-Straße 1, 38723 Seesen",Niedersachsen,4335934.948188805,3197026.301262084,50000,0.0,0,4310934.948188805,4360934.948188805,3172026.301262084,3222026.301262084
K000000163,Evangelisches Krankenhaus Göttingen-Weende gGmbH - Krankenhaus Neu-Mariahilf,9.942,51.5414,Waldweg 9,37073,Göttingen,Niedersachsen,"Evangelisches Krankenhaus Göttingen-Weende gGmbH - Krankenhaus Neu-Mariahilf, Waldweg 9, 37073 Göttingen",Niedersachsen,4316976.103414644,3158976.304954335,50000,69.0812147122652,28,4291976.103414644,4341976.103414644,3133976.304954335,3183976.304954335
K000000164,AGAPLESION KRANKENHAUS NEU BETHLEHEM gGmbH,9.9422,51.5403,Humboldtallee 8,37073,Göttingen,Niedersachsen,"AGAPLESION KRANKENHAUS NEU BETHLEHEM gGmbH, Humboldtallee 8, 37073 Göttingen",Niedersachsen,4316989.882169501,3158853.9094254086,50000,69.55629105342638,28,4291989.882169501,4341989.882169501,3133853.9094254086,3183853.9094254086
K000000165,Augenklinik Dr. Hoffmann,10.5276,52.2555,Wolfenbütteler Str. 82,38102,Braunschweig,Niedersachsen,"Augenklinik Dr. Hoffmann, Wolfenbütteler Str. 82, 38102 Braunschweig",Niedersachsen,4357027.770277232,3238559.831800862,50000,75.82375373596919,12,4332027.770277232,4382027.770277232,3213559.831800862,3263559.831800862
K000000166,AMEOS Klinikum Alfeld,9.8325,51.9942,Landrat-Beushausen-Str. 26,31061,Alfeld,Niedersachsen,"AMEOS Klinikum Alfeld, Landrat-Beushausen-Str. 26, 31061 Alfeld",Niedersachsen,4309494.958630657,3209367.8676297474,50000,20.950600308934476,8,4284494.958630657,4334494.958630657,3184367.8676297474,3234367.8676297474
K000000167,AGAPLESION EV. BATHILDISKRANKENHAUS gemeinnützige GmbH,9.2738,51.9853,Maulbeerallee 4,31812,Bad Pyrmont,Niedersachsen,"AGAPLESION EV. BATHILDISKRANKENHAUS gemeinnützige GmbH, Maulbeerallee 4, 31812 Bad Pyrmont",Niedersachsen,4271110.657486157,3208612.8674195935,50000,118.24226784840562,19,4246110.657486157,4296110.657486157,3183612.8674195935,3233612.8674195935
K000000168,"Kliniken Landkreis Diepholz gGmbH, Klinik Bassum",8.7296,52.8444,Marie-Hackfeld-Str. 6,27211,Bassum,Niedersachsen,"Kliniken Landkreis Diepholz gGmbH, Klinik Bassum, Marie-Hackfeld-Straße 6, 27211 Bassum",Niedersachsen,4235403.905258604,3304707.371146786,50000,33.709185806297576,8,4210403.905258604,4260403.905258604,3279707.371146786,3329707.371146786
K000000170,Krankenhaus Lindenbrunn,9.5498,52.1095,Lindenbrunn 1,31863,Coppenbrügge,Niedersachsen,"Krankenhaus Lindenbrunn, Lindenbrunn 1, 31863 Coppenbrügge",Niedersachsen,4290156.802047722,3222279.1543927067,50000,70.9898849303913,18,4265156.802047722,4315156.802047722,3197279.1543927067,3247279.1543927067
K000000172,"Kliniken Landkreis Diepholz gGmbH, Klinik Diepholz",8.3767,52.6105,Eschfeldstaße 8,49356,Diepholz,Niedersachsen,"Kliniken Landkreis Diepholz gGmbH, Klinik Diepholz, Eschfeldstaße 8, 49356 Diepholz",Niedersachsen,4211045.636528655,3279158.467505919,50000,14.14108169922604,1,4186045.636528655,4236045.636528655,3254158.467505919,3304158.467505919
K000000173,Johanniter-Krankenhaus Gronau GmbH,9.7677,52.0827,Johanniterstr. 1-3,31028,Gronau,Niedersachsen,"Johanniter-Krankenhaus Gronau GmbH, Johanniterstraße 1-3, 31028 Gronau",Niedersachsen,4305075.51465673,3219227.2480895706,50000,61.35328309630247,12,4280075.51465673,4330075.51465673,3194227.2480895706,3244227.2480895706
K000000174,Gesundheitseinrichtungen Hameln-Pyrmont GmbH - Sana Klinikum Hameln-Pyrmont,9.3523,52.107,Saint-Maur-Platz 1,31785,Hameln,Niedersachsen,"Gesundheitseinrichtungen Hameln-Pyrmont GmbH - Sana Klinikum Hameln-Pyrmont, Saint-Maur-Platz 1, 31785 Hameln",Niedersachsen,4276623.9494140055,3222102.9246242433,50000,98.34086204177135,21,4251623.9494140055,4301623.9494140055,3197102.9246242433,3247102.9246242433
K000000176,Sophienklinik GmbH,9.7506,52.3701,Bischofsholer Damm 160,30173,Hannover,Niedersachsen,"Sophienklinik GmbH, Bischofsholer Damm 160, 30173 Hannover",Niedersachsen,4304013.144725992,3251210.227125037,50000,158.24971136957862,41,4279013.144725992,4329013.144725992,3226210.227125037,3276210.227125037
K000000177,DRK-Krankenhaus Clementinenhaus,9.7449,52.3868,Lützerodestr. 1,30161,Hannover,Niedersachsen,"DRK-Krankenhaus Clementinenhaus, Lützerodestraße 1, 30161 Hannover",Niedersachsen,4303631.453968472,3253069.8237850005,50000,160.92208402514996,42,4278631.453968472,4328631.453968472,3228069.8237850005,3278069.8237850005
K000000178,Kinder- und Jugendkrankenhaus AUF DER BULT,9.7778,52.3601,Janusz-Korczak-Allee 12,30173,Hannover,Niedersachsen,"Kinder- und Jugendkrankenhaus AUF DER BULT, Janusz-Korczak-Allee 12, 30173 Hannover",Niedersachsen,4305862.343434323,3250091.501682743,50000,156.1963799746913,41,4280862.343434323,4330862.343434323,3225091.501682743,3275091.501682743
K000000179,DIAKOVERE Henriettenstift,9.7538,52.3698,Marienstr. 72-90,30171,Hannover,Niedersachsen,"DIAKOVERE Henriettenstift, Marienstraße 72-90, 30171 Hannover",Niedersachsen,4304230.985230496,3251176.1035281364,50000,158.21455914918604,41,4279230.985230496,4329230.985230496,3226176.1035281364,3276176.1035281364
K000000180,DIAKOVERE Friederikenstift,9.7244,52.3711,Humboldtstr. 5,30169,Hannover,Niedersachsen,"DIAKOVERE Friederikenstift, Humboldtstraße 5, 30169 Hannover",Niedersachsen,4302229.071892359,3251327.9337315434,50000,158.37429064843587,41,4277229.071892359,4327229.071892359,3226327.9337315434,3276327.9337315434
K000000181,KRH Klinikum Siloah,9.8087,52.4073,Stadionbrücke 4,30449,Hannover,Niedersachsen,"KRH Klinikum Siloah, Stadionbrücke 4, 30449 Hannover",Niedersachsen,4307981.300120578,3255337.603155711,50000,170.4698675455657,49,4282981.300120578,4332981.300120578,3230337.603155711,3280337.603155711
K000000183,KRH Klinikum Nordstadt,9.7145,52.3926,Haltenhoffstr. 41,30167,Hannover,Niedersachsen,"KRH Klinikum Nordstadt, Haltenhoffstraße 41, 30167 Hannover",Niedersachsen,4301564.216288085,3253722.889674511,50000,161.9447634113469,42,4276564.216288085,4326564.216288085,3228722.889674511,3278722.889674511
K000000184,Medizinische Hochschule Hannover,9.8059,52.384,Carl-Neuberg-Str. 1,30625,Hannover,Niedersachsen,"Medizinische Hochschule Hannover, Carl-Neuberg-Straße 1, 30625 Hannover",Niedersachsen,4307783.806428844,3252745.4461576887,50000,160.64149742544583,44,4282783.806428844,4332783.806428844,3227745.4461576887,3277745.4461576887
K000000185,Vinzenzkrankenhaus Hannover,9.8146,52.3589,Lange-Feld-Str. 31,30559,Hannover,Niedersachsen,"Vinzenzkrankenhaus Hannover, Lange-Feld-Strasse 31, 30559 Hannover",Niedersachsen,4308369.041728942,3249950.956767842,50000,155.71541055959818,43,4283369.041728942,4333369.041728942,3224950.956767842,3274950.956767842
K000000186,BDH-Klinik Hessisch Oldendorf gGmbH,9.2483,52.1737,Greitstr. 18-28,31840,Hessisch Oldendorf,Niedersachsen,"BDH-Klinik Hessisch Oldendorf gGmbH, Greitstraße 18-28, 31840 Hessisch Oldendorf",Niedersachsen,4269575.613330224,3229592.693899345,50000,159.23679725253365,36,4244575.613330224,4294575.613330224,3204592.693899345,3254592.693899345
K000000187,St. Bernward Krankenhaus,9.947,52.1467,Treibestr. 9,31134,Hildesheim,Niedersachsen,"St. Bernward Krankenhaus, Treibestr. 9, 31134 Hildesheim",Niedersachsen,4317371.962742237,3226324.4175129225,50000,52.56467834712245,13,4292371.962742237,4342371.962742237,3201324.4175129225,3251324.4175129225
K000000188,Helios Klinikum Hildesheim GmbH,9.9765,52.1515,Senator-Braun-Allee 33,31135,Hildesheim,Niedersachsen,"Helios Klinikum Hildesheim GmbH, Senator-Braun-Allee 33, 31135 Hildesheim",Niedersachsen,4319391.514578234,3226857.452259155,50000,56.53392561355915,15,4294391.514578234,4344391.514578234,3201857.452259155,3251857.452259155
K000000189,AGAPLESION EVANGELISCHES KRANKENHAUS HOLZMINDEN,9.4547,51.8343,Forster Weg 34,37603,Holzminden,Niedersachsen,"AGAPLESION EVANGELISCHES KRANKENHAUS HOLZMINDEN, Forster Weg 34, 37603 Holzminden",Niedersachsen,4283412.247321541,3191703.748638527,50000,101.18976544326837,7,4258412.247321541,4308412.247321541,3166703.748638527,3216703.748638527
K000000190,KRH Psychiatrie Langenhagen,9.7401,52.4438,Rohdehof 3,30853,Langenhagen,Niedersachsen,"KRH Psychiatrie Langenhagen, Rohdehof 3, 30853 Langenhagen",Niedersachsen,4303327.3954402385,3259413.5417412906,50000,188.32186413162424,52,4278327.3954402385,4328327.3954402385,3234413.5417412906,3284413.5417412906
K000000191,Paracelsus-Klinik am Silbersee,9.7576,52.4339,Oertzeweg 24,30851,Langenhagen,Niedersachsen,"Paracelsus-Klinik am Silbersee, Oertzeweg 24, 30851 Langenhagen",Niedersachsen,4304513.664066651,3258307.828928702,50000,182.41686258423135,50,4279513.664066651,4329513.664066651,3233307.828928702,3283307.828928702
K000000193,Burghof-Klinik,9.0816,52.1842,Ritterstr. 19,31737,Rinteln,Niedersachsen,"Burghof-Klinik, Ritterstraße 19, 31737 Rinteln",Niedersachsen,4258186.942447311,3230891.670193686,50000,168.61968540263214,30,4233186.942447311,4283186.942447311,3205891.670193686,3255891.670193686
K000000194,Klinikum Wahrendorff,9.9337,52.3449,Rudolf-Wahrendorff-Str. 22,31319,Sehnde OT Ilten,Niedersachsen,"Klinikum Wahrendorff, Rudolf-Wahrendorff-Str. 22, 31319 Sehnde OT Ilten",Niedersachsen,4316481.674571121,3248379.1128763696,50000,108.37393045236277,33,4291481.674571121,4341481.674571121,3223379.1128763696,3273379.1128763696
K000000195,Augenklinik Stadthagen,9.2064,52.3176,Brunnenstr. 12,31655,Stadthagen,Niedersachsen,"Augenklinik Stadthagen, Brunnenstr. 12, 31655 Stadthagen",Niedersachsen,4266884.384250747,3245634.2170857196,50000,221.22722208163285,51,4241884.384250747,4291884.384250747,3220634.2170857196,3270634.2170857196
K000000197,"Kliniken Landkreis Diepholz gGmbH, Klinik Sulingen",8.8053,52.6836,Schmelingstr. 47,27232,Sulingen,Niedersachsen,"Kliniken Landkreis Diepholz gGmbH, Klinik Sulingen, Schmelingstraße 47, 27232 Sulingen",Niedersachsen,4240207.757502387,3286729.487971854,50000,50.0858945505774,15,4215207.757502387,4265207.757502387,3261729.487971854,3311729.487971854
K000000201,DIAKOVERE Annastift,9.81,52.3692,Anna-von-Borries-Str. 1-7,30625,Hannover,Niedersachsen,"DIAKOVERE Annastift, Anna-von-Borries-Straße 1-7, 30625 Hannover",Niedersachsen,4308058.656674398,3251097.8725688043,50000,158.22397813453787,43,4283058.656674398,4333058.656674398,3226097.8725688043,3276097.8725688043
K000000202,Deister Süntel Klinik,9.4745,52.2076,Deisterallee 36,31848,Bad Münder,Niedersachsen,"Deister Süntel Klinik, Deisterallee 36, 31848 Bad Münder",Niedersachsen,4285077.047906273,3233229.030545588,50000,149.88061852498618,36,4260077.047906273,4310077.047906273,3208229.030545588,3258229.030545588
K000000203,KRH Geriatrie Langenhagen (Akut-Geriatrie),9.7401,52.4438,Rohdehof 3,30853,Langenhagen,Niedersachsen,"KRH Geriatrie Langenhagen (Akut-Geriatrie), Rohdehof 3, 30853 Langenhagen",Niedersachsen,4303327.3954402385,3259413.5417412906,50000,188.32186413162424,52,4278327.3954402385,4328327.3954402385,3234413.5417412906,3284413.5417412906
K000000204,Helios Kliniken Mittelweser / Standort Nienburg,9.2245,52.6355,Ziegelkampstr. 39,31582,Nienburg,Niedersachsen,"Helios Kliniken Mittelweser, Ziegelkampstraße 39, 31582 Nienburg",Niedersachsen,4268497.382300123,3280993.3328440087,50000,212.5456418816059,43,4243497.382300123,4293497.382300123,3255993.3328440087,3305993.3328440087
K000000205,Helios Kliniken Mittelweser / Standort Stolzenau,9.0683,52.5159,Holzhäuser Weg 28,31592,Stolzenau,Niedersachsen,"Helios Kliniken Mittelweser, Holzhäuser Weg 28, 31592 Stolzenau",Niedersachsen,4257751.603554161,3267809.8015356283,50000,161.46370869884532,36,4232751.603554161,4282751.603554161,3242809.8015356283,3292809.8015356283
K000000206,KRH Klinikum Robert Koch Gehrden,9.5977,52.3041,Von-Reden-Str. 1,30989,Gehrden,Niedersachsen,"KRH Klinikum Robert Koch Gehrden, Von-Reden-Straße 1, 30989 Gehrden",Niedersachsen,4293558.349183736,3243912.945464558,50000,157.17595211520668,50,4268558.349183736,4318558.349183736,3218912.945464558,3268912.945464558
K000000207,KRH Klinikum Agnes Karll Laatzen,9.7987,52.3074,Hildesheimer Str. 158,30880,Laatzen,Niedersachsen,"KRH Klinikum Agnes Karll Laatzen, Hildesheimer Straße 158, 30880 Laatzen",Niedersachsen,4307269.901177495,3244223.3184184376,50000,139.7329191863386,43,4282269.901177495,4332269.901177495,3219223.3184184376,3269223.3184184376
K000000208,KRH Klinikum Großburgwedel,9.8617,52.4963,Fuhrberger Str. 8,30938,Burgwedel,Niedersachsen,"KRH Klinikum Großburgwedel, Fuhrberger Straße 8, 30938 Burgwedel",Niedersachsen,4311607.056325029,3265232.8170973198,50000,199.1316979444885,67,4286607.056325029,4336607.056325029,3240232.8170973198,3290232.8170973198
K000000209,AMEOS Klinikum Hildesheim,9.9842,52.1464,Goslarsche Landstr. 60,31135,Hildesheim,Niedersachsen,"AMEOS Klinikum Hildesheim, Goslarsche Landstraße 60, 31135 Hildesheim",Niedersachsen,4319918.426816956,3226289.8342826758,50000,55.00564418682828,15,4294918.426816956,4344918.426816956,3201289.8342826758,3251289.8342826758
K000000210,KRH Klinikum Neustadt am Rübenberge,9.4661,52.4934,Lindenstr. 75,31535,Neustadt am Rübenberge,Niedersachsen,"KRH Klinikum Neustadt am Rübenberge, Lindenstraße 75, 31535 Neustadt am Rübenberge",Niedersachsen,4284736.99815131,3265034.219599412,50000,232.68384064726897,68,4259736.99815131,4309736.99815131,3240034.219599412,3290034.219599412
K000000211,KRH Klinikum Lehrte,9.9836,52.3799,Manskestr. 22,31275,Lehrte,Niedersachsen,"KRH Klinikum Lehrte, Manskestraße 22, 31275 Lehrte",Niedersachsen,4319883.225634345,3252271.7332040328,50000,98.74944201060114,27,4294883.225634345,4344883.225634345,3227271.7332040328,3277271.7332040328
K000000213,KRH Psychiatrie Wunstorf,9.4308,52.4241,Südstr. 25,31515,Wunstorf,Niedersachsen,"KRH Psychiatrie Wunstorf, Südstraße 25, 31515 Wunstorf",Niedersachsen,4282278.84289646,3257341.291133551,50000,189.09720003239215,45,4257278.84289646,4307278.84289646,3232341.291133551,3282341.291133551
K000000214,MEDIAN Zentrum für Verhaltensmedizin Bad Pyrmont - Fachkrankenhaus,9.2525,51.9911,Bombergallee 11,31812,Bad Pyrmont,Niedersachsen,"MEDIAN Zentrum für Verhaltensmedizin Bad Pyrmont - Fachkrankenhaus, Bombergallee 11, 31812 Bad Pyrmont",Niedersachsen,4269654.05153053,3209272.97898649,50000,119.13900973932347,19,4244654.05153053,4294654.05153053,3184272.97898649,3234272.97898649
K000000215,AMEOS Klinikum Hameln,9.3635,52.1029,Wilhelmstr. 5,31785,Hameln,Niedersachsen,"AMEOS Klinikum Hameln, Wilhelmstraße 5, 31785 Hameln",Niedersachsen,4277387.2808839,3221639.974435189,50000,95.27959637658151,18,4252387.2808839,4302387.2808839,3196639.974435189,3246639.974435189
K000000216,MediClin Klinik für Akutpsychosomatik und Psychotherapie,9.4712,52.2082,Lug ins Land 5,31848,Bad Münder,Niedersachsen,"MediClin Klinik für Akutpsychosomatik und Psychotherapie, Lug ins Land 5, 31848 Bad Münder",Niedersachsen,4284851.952075732,3233297.4239793853,50000,149.90560956606996,35,4259851.952075732,4309851.952075732,3208297.4239793853,3258297.4239793853
K000000217,"Aller-Weser-Klinik gGmbH, Krankenhaus Achim",9.0048,53.0183,Bierdener Mühle 2,28832,Achim,Niedersachsen,"Aller-Weser-Klinik gGmbH, Krankenhaus Achim, Bierdener Mühle 2, 28832 Achim",Niedersachsen,4254211.7794108195,3323768.2973052557,50000,177.92996055888443,37,4229211.7794108195,4279211.7794108195,3298768.2973052557,3348768.2973052557
K000000218,Diana Krankenhausbetriebsgesellschaft mbH,10.5888,53.081,Dahlenburger Str. 2 a,29549,Bad Bevensen,Niedersachsen,"Diana Krankenhausbetriebsgesellschaft mbH, Dahlenburger Straße 2 a, 29549 Bad Bevensen",Niedersachsen,4360458.442065713,3330448.0097796237,50000,30.417841139626695,9,4335458.442065713,4385458.442065713,3305448.0097796237,3355448.0097796237
K000000219,Falkenried Caduceus Klinik,10.602,53.0906,Niendorfer Weg 5,29549,Bad Bevensen,Niedersachsen,"Falkenried Caduceus Klinik, Niendorfer Weg 5, 29549 Bad Bevensen",Niedersachsen,4361334.081005919,3331523.524064879,50000,33.90185469448047,9,4336334.081005919,4386334.081005919,3306523.524064879,3356523.524064879
K000000220,OsteMed Klinik Bremervörde,9.1353,53.4713,Gnarrenburger Str. 117,27432,Bremervörde,Niedersachsen,"OsteMed Klinik Bremervörde, Gnarrenburger Straße 117, 27432 Bremervörde",Niedersachsen,4263575.823883254,3374063.663256185,50000,22.92453295658646,7,4238575.823883254,4288575.823883254,3349063.663256185,3399063.663256185
K000000221,Krankenhaus Buchholz,9.8736,53.3336,Steinbecker Str. 44,21244,Buchholz in der Nordheide,Niedersachsen,"Krankenhaus Buchholz, Steinbecker Straße 44, 21244 Buchholz in der Nordheide",Niedersachsen,4312578.630637694,3358405.0796186198,50000,96.81782356674816,13,4287578.630637694,4337578.630637694,3333405.0796186198,3383405.0796186198
K000000222,Elbe Klinikum Buxtehude,9.6751,53.4617,Am Krankenhaus 1,21614,Buxtehude,Niedersachsen,"Elbe Klinikum Buxtehude, Am Krankenhaus 1, 21614 Buxtehude",Niedersachsen,4299418.24739873,3372701.3711469052,50000,141.69692151692195,29,4274418.24739873,4324418.24739873,3347701.3711469052,3397701.3711469052
K000000223,ALLGEMEINES KRANKENHAUS CELLE,10.0847,52.6286,Siemensplatz 4,29223,Celle,Niedersachsen,"ALLGEMEINES KRANKENHAUS CELLE, Siemensplatz 4, 29223 Celle",Niedersachsen,4326735.352179893,3279948.976872749,50000,45.54127634501049,17,4301735.352179893,4351735.352179893,3254948.976872749,3304948.976872749
K000000224,Helios Klinik Cuxhaven GmbH,8.6923,53.8522,Altenwalder Chaussee 10,27474,Cuxhaven,Niedersachsen,"Helios Klinik Cuxhaven GmbH, Altenwalder Chaussee 10, 27474 Cuxhaven",Niedersachsen,4234934.24596143,3416886.1282798867,50000,103.42334442205375,11,4209934.24596143,4259934.24596143,3391886.1282798867,3441886.1282798867
K000000225,Capio Elbe-Jeetzel-Klinik Dannenberg,11.0808,53.0832,Hermann-Löns-Str. 2,29451,Dannenberg,Niedersachsen,"Capio Elbe-Jeetzel-Klinik Dannenberg, Hermann-Löns-Straße 2, 29451 Dannenberg",Niedersachsen,4393423.976037963,3331071.7915531793,50000,96.38168767196665,33,4368423.976037963,4418423.976037963,3306071.7915531793,3356071.7915531793
K000000226,Heidekreis-Klinikum GmbH Krankenhaus Walsrode,9.5865,52.8591,Robert-Koch-Str. 4,29664,Walsrode,Niedersachsen,"Heidekreis-Klinikum GmbH Krankenhaus Walsrode, Robert-Koch-Straße 4, 29664 Walsrode",Niedersachsen,4293147.402945911,3305674.333301806,50000,127.72060341898434,45,4268147.402945911,4318147.402945911,3280674.333301806,3330674.333301806
K000000227,Waldklinik Jesteburg,9.9489,53.3193,Kleckerwaldweg 145,21266,Jesteburg,Niedersachsen,"Waldklinik Jesteburg, Kleckerwaldweg 145, 21266 Jesteburg",Niedersachsen,4317594.340535789,3356807.6092693782,50000,91.3362928544358,15,4292594.340535789,4342594.340535789,3331807.6092693782,3381807.6092693782
K000000229,Klinik Lilienthal,8.9073,53.1498,Moorhauser Landstr. 3c,28865,Lilienthal,Niedersachsen,"Klinik Lilienthal, Moorhauser Landstraße 3c, 28865 Lilienthal",Niedersachsen,4247891.238624754,3338494.3050945615,50000,128.61758334630542,29,4222891.238624754,4272891.238624754,3313494.3050945615,3363494.3050945615
K000000230,Psychiatrische Klinik Uelzen,10.5284,52.9668,An den Zehn Eichen 50,29525,Uelzen,Niedersachsen,"Psychiatrische Klinik Uelzen, An den Zehn Eichen 50, 29525 Uelzen",Niedersachsen,4356504.06913843,3317708.9769715797,50000,0.0,0,4331504.06913843,4381504.06913843,3292708.9769715797,3342708.9769715797
K000000231,Klinik Dr.Havemann,10.4103,53.238,Barckhausenstr. 57,21335,Lüneburg,Niedersachsen,"Klinik Dr.Havemann, Barckhausenstr. 57, 21335 Lüneburg",Niedersachsen,4348396.760682884,3347836.6240407587,50000,114.15371173263215,26,4323396.760682884,4373396.760682884,3322836.6240407587,3372836.6240407587
K000000232,Psychiatrische Klinik Lüneburg gemeinnützige GmbH,10.3868,53.2536,Am Wienebütteler Weg 1,21339,Lüneburg,Niedersachsen,"Psychiatrische Klinik Lüneburg gemeinnützige GmbH, Am Wienebütteler Weg 1, 21339 Lüneburg",Niedersachsen,4346818.278939675,3349563.981413552,50000,119.24136355877444,26,4321818.278939675,4371818.278939675,3324563.981413552,3374563.981413552
K000000233,Städtisches Klinikum Lüneburg gemeinnützige GmbH,10.3954,53.2404,Bögelstr. 1,21339,Lüneburg,Niedersachsen,"Städtisches Klinikum Lüneburg gemeinnützige GmbH, Bögelstraße 1, 21339 Lüneburg",Niedersachsen,4347400.392271648,3348098.1749270554,50000,114.0059533763528,26,4322400.392271648,4372400.392271648,3323098.1749270554,3373098.1749270554
K000000234,Kreiskrankenhaus Osterholz,8.7928,53.2338,Am Krankenhaus 4,27711,Osterholz-Scharmbeck,Niedersachsen,"Kreiskrankenhaus Osterholz, Am Krankenhaus 4, 27711 Osterholz-Scharmbeck",Niedersachsen,4240388.18363239,3347962.1551570315,50000,159.60912530924472,41,4215388.18363239,4265388.18363239,3322962.1551570315,3372962.1551570315
K000000235,Capio Krankenhaus Land Hadeln,8.8897,53.8126,Große Ortstr. 85,21762,Otterndorf,Niedersachsen,"Capio Krankenhaus Land Hadeln, Große Ortstraße 85, 21762 Otterndorf",Niedersachsen,4247856.2602672605,3412262.8903903402,50000,105.16451471888942,15,4222856.2602672605,4272856.2602672605,3387262.8903903402,3437262.8903903402
K000000236,Ev. Krankenhaus Ginsterhof GmbH,9.935,53.4043,Metzendorfer Weg 21,21224,Rosengarten,Niedersachsen,"Ev. Krankenhaus Ginsterhof GmbH, Metzendorfer Weg 21, 21224 Rosengarten",Niedersachsen,4316676.515308887,3366267.345417943,50000,135.37573859202593,22,4291676.515308887,4341676.515308887,3341267.345417943,3391267.345417943
K000000237,AGAPLESION DIAKONIEKLINIKUM ROTENBURG gemeinnützige GmbH,9.4131,53.1073,Elise-Averdieck-Str. 17,27356,Rotenburg (Wümme),Niedersachsen,"AGAPLESION DIAKONIEKLINIKUM ROTENBURG gemeinnützige GmbH, Elise-Averdieck-Str. 17, 27356 Rotenburg (Wümme)",Niedersachsen,4281692.752351909,3333373.578303605,50000,48.41834586323955,10,4256692.752351909,4306692.752351909,3308373.578303605,3358373.578303605
K000000240,Heidekreis-Klinikum GmbH Krankenhaus Soltau,9.8559,52.9894,Oeninger Weg 30,29614,Soltau,Niedersachsen,"Heidekreis-Klinikum GmbH Krankenhaus Soltau, Oeninger Weg 30, 29614 Soltau",Niedersachsen,4311322.6214594655,3320104.389027617,50000,7.393371141464517,1,4286322.6214594655,4336322.6214594655,3295104.389027617,3345104.389027617
K000000241,Elbe Klinikum Stade,9.4433,53.5957,Bremervörder Str. 111,21682,Stade,Niedersachsen,"Elbe Klinikum Stade, Bremervörder Straße 111, 21682 Stade",Niedersachsen,4284136.886408808,3387706.49715848,50000,186.00091112214258,45,4259136.886408808,4309136.886408808,3362706.49715848,3412706.49715848
K000000243,"Aller-Weser-Klinik gGmbH, Krankenhaus Verden",9.2351,52.914,Eitzer Str. 20,27283,Verden (Aller),Niedersachsen,"Aller-Weser-Klinik gGmbH, Krankenhaus Verden, Eitzer Straße 20, 27283 Verden (Aller)",Niedersachsen,4269543.325443668,3311975.13732562,50000,178.2645941569173,36,4244543.325443668,4294543.325443668,3286975.13732562,3336975.13732562
K000000244,Krankenhaus Winsen ( Luhe ),10.2004,53.3509,Friedrich-Lichtenauer-Allee 1,21423,Winsen ( Luhe ),Niedersachsen,"Krankenhaus Winsen ( Luhe ), Friedrich-Lichtenauer-Allee 1, 21423 Winsen ( Luhe )",Niedersachsen,4334346.214758644,3360341.3579498525,50000,116.3801582551988,22,4309346.214758644,4359346.214758644,3335341.3579498525,3385341.3579498525
K000000247,Klinik Fallingbostel,9.7059,52.869,Kolkweg 1,29683,Bad Fallingbostel,Niedersachsen,"Klinik Fallingbostel, Kolkweg 1, 29683 Bad Fallingbostel",Niedersachsen,4301194.3973265365,3306736.8348944765,50000,103.3628925531006,38,4276194.3973265365,4326194.3973265365,3281736.8348944765,3331736.8348944765
K000000248,Herz- und Gefäßzentrum Bad Bevensen,10.6035,53.0855,Römstedter Str. 25,29549,Bad Bevensen,Niedersachsen,"Herz- und Gefäßzentrum Bad Bevensen, Römstedter Straße 25, 29549 Bad Bevensen",Niedersachsen,4361439.337757092,3330956.843901849,50000,32.81229147502492,9,4336439.337757092,4386439.337757092,3305956.843901849,3355956.843901849
K000000249,Orthoklinik Lüneburg GmbH,10.394,53.2328,Ginsterweg 5-7,21335,Lüneburg,Niedersachsen,"Orthoklinik Lüneburg GmbH, Ginsterweg 5-7, 21335 Lüneburg",Niedersachsen,4347311.554237219,3347251.9369868236,50000,110.86265202757126,26,4322311.554237219,4372311.554237219,3322251.9369868236,3372251.9369868236
K000000250,MediClin Klinikum Soltau,9.857,52.9941,Oeninger Weg 59,29614,Soltau,Niedersachsen,"MediClin Klinikum Soltau, Oeninger Weg 59, 29614 Soltau",Niedersachsen,4311397.532706529,3320627.2574985293,50000,5.449667529250895,1,4286397.532706529,4336397.532706529,3295627.2574985293,3345627.2574985293
K000000252,Klinik Dr. med. T. Witwity GmbH,9.4737,53.5981,Neubourgstr. 4,21682,Stade,Niedersachsen,"Klinik Dr. med. T. Witwity GmbH, Neubourgstr. 4, 21682 Stade",Niedersachsen,4286151.810307612,3387958.5355672906,50000,187.00929273944695,46,4261151.810307612,4311151.810307612,3362958.5355672906,3412958.5355672906
K000000253,Klinik Dr. Hancken GmbH,9.4727,53.5951,Harsefelder Str. 8,21680,Stade,Niedersachsen,"Klinik Dr. Hancken GmbH, Harsefelder Str. 8, 21680 Stade",Niedersachsen,4286083.139328069,3387625.1744584776,50000,185.07314682791736,44,4261083.139328069,4311083.139328069,3362625.1744584776,3412625.1744584776
K000000254,Helios Klinikum Uelzen GmbH,10.5321,52.9718,Hagenskamp 34,29525,Uelzen,Niedersachsen,"Helios Klinikum Uelzen GmbH, Hagenskamp 34, 29525 Uelzen",Niedersachsen,4356748.5642343145,3318267.1769024767,50000,0.0,0,4331748.5642343145,4381748.5642343145,3293267.1769024767,3343267.1769024767
K000000255,HELIOS Seehospital Sahlenburg,8.6003,53.8653,Nordheimstr. 201,27476,Cuxhaven,Niedersachsen,"HELIOS Seehospital Sahlenburg, Nordheimstraße 201, 27476 Cuxhaven",Niedersachsen,4228908.723313798,3418456.869458471,50000,88.96936144829286,9,4203908.723313798,4253908.723313798,3393456.869458471,3443456.869458471
K000000256,MediClin Seepark Klinik,10.6832,52.8241,Sebastian-Kneipp-Str. 1,29389,Bad Bodenteich,Niedersachsen,"MediClin Seepark Klinik, Sebastian-Kneipp-Str. 1, 29389 Bad Bodenteich",Niedersachsen,4367055.475363354,3301916.7917359704,50000,0.0,0,4342055.475363354,4392055.475363354,3276916.7917359704,3326916.7917359704
K000000257,Niels-Stensen-Kliniken Marienhospital Ankum-Bersenbrück GmbH,7.8741,52.5409,Lingener Str. 11,49577,Ankum,Niedersachsen,"Niels-Stensen-Kliniken Marienhospital Ankum-Bersenbrück GmbH, Lingener Straße 11, 49577 Ankum",Niedersachsen,4176784.3067895933,3272293.832608234,50000,57.88848501328906,8,4151784.3067895933,4201784.306789594,3247293.832608234,3297293.832608234
K000000258,"Ubbo-Emmius-Klinik gGmbH, Ostfriesisches Krankenhaus, Klinik Aurich",7.4971,53.4676,Wallinghausener Str. 8 - 12,26603,Aurich,Niedersachsen,"Ubbo-Emmius-Klinik gGmbH, Ostfriesisches Krankenhaus, Klinik Aurich, Wallinghausener Str. 8 - 12, 26603 Aurich",Niedersachsen,4154803.3175350893,3376177.64598863,50000,45.20541999827173,8,4129803.3175350893,4179803.3175350893,3351177.64598863,3401177.64598863
K000000259,Schüchtermann-Klinik,8.1626,52.1113,Ulmenallee 5-11,49214,Bad Rothenfelde,Niedersachsen,"Schüchtermann-Klinik, Ulmenallee 5-11, 49214 Bad Rothenfelde",Niedersachsen,4195139.302259437,3223971.1251030387,50000,17.87723528576467,3,4170139.302259437,4220139.302259437,3198971.1251030387,3248971.1251030387
K000000260,Augenklinik Dr. Georg,8.1588,52.1103,Am Kurpark 13-15,49214,Bad Rothenfelde,Niedersachsen,"Augenklinik Dr. Georg, Am Kurpark 13-15, 49214 Bad Rothenfelde",Niedersachsen,4194876.25049753,3223866.456758892,50000,16.757669132291085,3,4169876.25049753,4219876.25049753,3198866.456758892,3248866.456758892
K000000261,Karl-Jaspers-Klinik,8.1401,53.1697,Hermann-Ehlers-Str. 7,26160,Bad Zwischenahn,Niedersachsen,"Karl-Jaspers-Klinik, Hermann-Ehlers-Straße 7, 26160 Bad Zwischenahn",Niedersachsen,4196628.146377013,3341751.8306252356,50000,106.70697139231568,28,4171628.146377013,4221628.146377013,3316751.8306252356,3366751.8306252356
K000000262,Paulinenkrankenhaus Bad Bentheim,7.1501,52.2995,Paulinenweg 1,48455,Bad Bentheim,Niedersachsen,"Paulinenkrankenhaus Bad Bentheim, Paulinenweg 1, 48455 Bad Bentheim",Niedersachsen,4126639.03442753,3247129.328830471,50000,127.96943050479383,23,4101639.03442753,4151639.03442753,3222129.328830471,3272129.328830471
K000000263,St. Bernhard-Hospital gemeinnützige GmbH,8.4823,53.3243,Claußenstr. 3,26919,Brake,Niedersachsen,"St. Bernhard-Hospital gemeinnützige GmbH, Claußenstraße 3, 26919 Brake",Niedersachsen,4219870.213527011,3358420.4385435483,50000,181.61107970677165,36,4194870.213527011,4244870.213527011,3333420.4385435483,3383420.4385435483
K000000264,Niels-Stensen-Kliniken Bramsche GmbH,7.9853,52.409,Hasestr. 16,49565,Bramsche,Niedersachsen,"Niels-Stensen-Kliniken Bramsche GmbH, Hasestraße 16, 49565 Bramsche",Niedersachsen,4183917.2525522276,3257406.8801892013,50000,83.78267341842121,12,4158917.2525522276,4208917.252552228,3232406.8801892013,3282406.8801892013
K000000265,Krankenhaus St. Elisabeth gGmbH,8.1945,52.5216,Lindenstr. 3-7,49401,Damme,Niedersachsen,"Krankenhaus St. Elisabeth gGmbH, Lindenstraße 3-7, 49401 Damme",Niedersachsen,4198460.242246737,3269559.5426217387,50000,68.32573178693183,9,4173460.242246737,4223460.242246737,3244559.5426217387,3294559.5426217387
K000000266,Stadtkrankenhaus Delmenhorst GmbH,8.5925,53.0445,Wildeshauser Str. 92,27753,Delmenhorst,Niedersachsen,"Stadtkrankenhaus Delmenhorst GmbH, Wildeshauser Straße 92, 27753 Delmenhorst",Niedersachsen,4226602.591984616,3327140.9698858154,50000,135.70213729303984,39,4201602.591984616,4251602.591984616,3302140.9698858154,3352140.9698858154
K000000270,Klinikum Emden - Hans-Susemihl-Krankenhaus gGmbH,7.2136,53.3739,Bolardusstr. 20,26721,Emden,Niedersachsen,"Klinikum Emden - Hans-Susemihl-Krankenhaus gGmbH, Bolardusstraße 20, 26721 Emden",Niedersachsen,4135583.626309983,3366443.5615323195,50000,131.40895996725678,23,4110583.626309983,4160583.626309983,3341443.5615323195,3391443.5615323195
K000000272,St.-Marien-Hospital gGmbH,7.8543,53.0223,St.-Marien-Str. 1,26169,Friesoythe,Niedersachsen,"St.-Marien-Hospital gGmbH, St.-Marien-Str. 1, 26169 Friesoythe",Niedersachsen,4177033.62113459,3325882.431055978,50000,91.5292182466044,8,4152033.62113459,4202033.62113459,3300882.431055978,3350882.431055978
K000000273,Klinik für Kinder- und Jugendpsychiatrie Wichernstift gGmbH,8.5757,53.0478,Oldenburger Str. 333,27777,Ganderkesee,Niedersachsen,"Klinik für Kinder- und Jugendpsychiatrie Wichernstift gGmbH, Oldenburger Straße 333, 27777 Ganderkesee",Niedersachsen,4225483.289907545,3327530.098556796,50000,136.8339430744298,40,4200483.289907545,4250483.289907545,3302530.098556796,3352530.098556796
K000000274,Klinikum Osnabrücker Land GmbH,8.0415,52.2048,Hospitalweg 1,49124,Georgsmarienhütte,Niedersachsen,"Klinikum Osnabrücker Land GmbH, Hospitalweg 1, 49124 Georgsmarienhütte",Niedersachsen,4187126.698036555,3234587.7426015646,50000,90.64741728941776,12,4162126.698036555,4212126.698036555,3209587.7426015646,3259587.7426015646
K000000275,Niels-Stensen-Kliniken St.-Vinzenz-Hospital Haselünne GmbH,7.4837,52.6711,Hammer Str. 9,49740,Haselünne,Niedersachsen,"Niels-Stensen-Kliniken St.-Vinzenz-Hospital Haselünne GmbH, Hammer Str. 9, 49740 Haselünne",Niedersachsen,4150815.852907544,3287619.448256395,50000,196.32340371215517,51,4125815.852907544,4175815.852907544,3262619.448256395,3312619.448256395
K000000276,Klinikum Leer gGmbH,7.4585,53.2359,Augustenstr. 35 - 37,26789,Leer,Niedersachsen,"Klinikum Leer gGmbH, Augustenstraße 35 - 37, 26789 Leer",Niedersachsen,4151328.538438784,3350496.329360666,50000,174.85749032219672,42,4126328.538438784,4176328.538438784,3325496.329360666,3375496.329360666
K000000277,Borromäus Hospital Leer gGmbH,7.4458,53.2287,Kirchstr. 61 - 67,26789,Leer,Niedersachsen,"Borromäus Hospital Leer gGmbH, Kirchstraße 61 - 67, 26789 Leer",Niedersachsen,4150452.6119243205,3349725.2918403004,50000,179.23032400007858,43,4125452.6119243205,4175452.6119243205,3324725.2918403004,3374725.2918403004
K000000278,Bonifatius Hospital Lingen,7.3157,52.5251,Wilhelmstr. 13,49808,Lingen,Niedersachsen,"Bonifatius Hospital Lingen, Wilhelmstraße 13, 49808 Lingen",Niedersachsen,4138856.484072244,3271788.893217115,50000,243.0130733108293,46,4113856.484072244,4163856.484072244,3246788.893217115,3296788.893217115
K000000279,St. Anna Klinik,7.7544,52.7345,St. Annenstr. 9,49624,Löningen,Niedersachsen,"St. Anna Klinik, St. Annenstr. 9, 49624 Löningen",Niedersachsen,4169336.1341171223,3294072.106436294,50000,0.0,0,4144336.1341171223,4194336.134117123,3269072.106436294,3319072.106436294
K000000280,St. Franziskus-Hospital Lohne,8.2408,52.6646,Franziskusstr. 6,49393,Lohne,Niedersachsen,"St. Franziskus-Hospital, Franziskusstr. 6, 49393 Lohne",Niedersachsen,4201988.91052383,3285391.038677939,50000,0.0,0,4176988.91052383,4226988.91052383,3260391.038677939,3310391.038677939
K000000281,Niels-Stensen-Klinikum Christliches Klinikum Melle,8.3356,52.1974,Engelgarten 3,49324,Melle,Niedersachsen,"Niels-Stensen-Klinikum Christliches Klinikum Melle, Engelgarten 3, 49324 Melle",Niedersachsen,4207206.634627241,3233264.572947583,50000,60.2573103595698,7,4182206.6346272407,4232206.634627241,3208264.572947583,3258264.572947583
K000000282,Krankenhaus Ludmillenstift,7.2928,52.6888,Ludmillenstr. 4-6,49716,Meppen,Niedersachsen,"Krankenhaus Ludmillenstift, Ludmillenstraße 4-6, 49716 Meppen",Niedersachsen,4137985.20489904,3290051.571309071,50000,236.2551439196278,52,4112985.20489904,4162985.20489904,3265051.571309071,3315051.571309071
K000000283,Clemens-August-Klinik,8.105,52.5118,Wahlde 11,49434,Neuenkirchen-Vörden,Niedersachsen,"Clemens-August-Klinik, Wahlde 11, 49434 Neuenkirchen-Vörden",Niedersachsen,4192358.85995751,3268623.8283219277,50000,68.25551192879573,9,4167358.85995751,4217358.859957511,3243623.8283219277,3293623.8283219277
K000000284,"Ubbo-Emmius-Klinik gGmbH, Ostfriesisches Krankenhaus, Klinik Norden",7.2177,53.6009,Osterstr. 110,26506,Norden,Niedersachsen,"Ubbo-Emmius-Klinik gGmbH, Ostfriesisches Krankenhaus, Klinik Norden, Osterstr. 110, 26506 Norden",Niedersachsen,4136836.726681793,3391678.2404468576,50000,22.602073453163953,4,4111836.726681793,4161836.726681793,3366678.2404468576,3416678.2404468576
K000000285,Krankenhaus Norderney,7.1723,53.7162,Lippestr. 9-11,26548,Norderney,Niedersachsen,"Krankenhaus Norderney, Lippestr. 9-11, 26548 Norderney",Niedersachsen,4134340.3993145544,3404617.0483455355,50000,48.046060777071965,2,4109340.3993145544,4159340.3993145544,3379617.0483455355,3429617.0483455355
K000000286,Helios Klinik Wesermarsch,8.4652,53.4837,Mildred-Scheel-Str. 1,26954,Nordenham,Niedersachsen,"Helios Klinik Wesermarsch, Mildred-Scheel-Str. 1, 26954 Nordenham",Niedersachsen,4219110.474171872,3376179.4135065493,50000,122.68629276371446,13,4194110.4741718723,4244110.474171872,3351179.4135065493,3401179.4135065493
K000000287,Euregio-Klinik Hannoverstraße GmbH,7.0658,52.4427,Albert-Schweitzer-Str. 10,48527,Nordhorn,Niedersachsen,"Euregio-Klinik Hannoverstraße GmbH, Albert-Schweitzer-Straße 10, 48527 Nordhorn",Niedersachsen,4121538.201996533,3263280.9563133493,50000,223.6041510068634,26,4096538.201996533,4146538.201996533,3238280.9563133493,3288280.9563133493
K000000288,Euregio-Klinik Albert-Schweitzer-Straße GmbH,7.0658,52.4427,Albert-Schweitzer-Str. 10,48527,Nordhorn,Niedersachsen,"Euregio-Klinik Albert-Schweitzer-Straße GmbH, Albert-Schweitzer-Str. 10, 48527 Nordhorn",Niedersachsen,4121538.201996533,3263280.9563133493,50000,223.6041510068634,26,4096538.201996533,4146538.201996533,3238280.9563133493,3288280.9563133493
K000000289,Klinikum Oldenburg AöR,8.218,53.1117,Rahel-Straus-Str. 10,26133,Oldenburg,Niedersachsen,"Klinikum Oldenburg AöR, Rahel-Straus-Str. 10, 26133 Oldenburg",Niedersachsen,4201676.201323934,3335168.5491448073,50000,92.1153124346565,23,4176676.201323934,4226676.201323934,3310168.5491448073,3360168.5491448073
K000000290,"Pius-Hospital Oldenburg, Medizinischer Campus Universität Oldenburg",8.211,53.144,Georgstr. 12,26121,Oldenburg,Niedersachsen,"Pius-Hospital Oldenburg, Medizinischer Campus Universität Oldenburg, Georgstraße 12, 26121 Oldenburg",Niedersachsen,4201296.9689288335,3338773.509197226,50000,99.84212086545587,26,4176296.9689288335,4226296.9689288335,3313773.509197226,3363773.509197226
K000000291,Evangelisches Krankenhaus Oldenburg,8.2053,53.1422,Steinweg 13 - 17,26122,Oldenburg,Niedersachsen,"Evangelisches Krankenhaus Oldenburg, Steinweg 13 - 17, 26122 Oldenburg",Niedersachsen,4200910.67077105,3338582.6682339287,50000,99.40900081935033,26,4175910.6707710503,4225910.67077105,3313582.6682339287,3363582.6682339287
K000000292,Paracelsus-Klinik Osnabrück,8.0103,52.289,Am Natruper Holz 69,49076,Osnabrück,Niedersachsen,"Paracelsus-Klinik Osnabrück, Am Natruper Holz 69, 49076 Osnabrück",Niedersachsen,4185251.42482457,3244011.60926825,50000,91.63415535946687,10,4160251.42482457,4210251.424824569,3219011.60926825,3269011.60926825
K000000293,AMEOS Klinikum Osnabrück,8.0523,52.2881,Knollstr. 31,49088,Osnabrück,Niedersachsen,"AMEOS Klinikum Osnabrück, Knollstraße 31, 49088 Osnabrück",Niedersachsen,4188113.4151356686,3243834.0251495726,50000,80.64101054965991,10,4163113.4151356686,4213113.415135669,3218834.0251495726,3268834.0251495726
K000000294,Kinderhospital Osnabrück,8.0643,52.2519,Iburger Str. 187,49082,Osnabrück,Niedersachsen,"Kinderhospital Osnabrück, Iburger Straße 187, 49082 Osnabrück",Niedersachsen,4188824.4872949673,3239785.3723235093,50000,76.3575788647812,9,4163824.4872949673,4213824.487294967,3214785.3723235093,3264785.3723235093
K000000295,Niels-Stensen-Kliniken Marienhospital Osnabrück,8.0538,52.2703,Bischofsstr. 1,49074,Osnabrück,Niedersachsen,"Niels-Stensen-Kliniken Marienhospital Osnabrück, Bischofsstraße 1, 49074 Osnabrück",Niedersachsen,4188162.6101659685,3241851.253682331,50000,80.28392633436165,10,4163162.6101659685,4213162.610165969,3216851.253682331,3266851.253682331
K000000296,Klinikum Osnabrück GmbH,8.0024,52.2768,Am Finkenhügel 1,49076,Osnabrück,Niedersachsen,"Klinikum Osnabrück GmbH, Am Finkenhügel 1, 49076 Osnabrück",Niedersachsen,4184675.2288064193,3242669.2843007343,50000,94.2582354277546,12,4159675.2288064193,4209675.228806419,3217669.2843007343,3267669.2843007343
K000000297,Niels-Stensen-Kliniken Krankenhaus St. Raphael Ostercappeln,8.2288,52.3453,Bremer Str. 31,49179,Ostercappeln,Niedersachsen,"Niels-Stensen-Kliniken Krankenhaus St. Raphael Ostercappeln, Bremer Straße 31, 49179 Ostercappeln",Niedersachsen,4200308.082327292,3249889.6966121276,50000,68.24081810983066,9,4175308.0823272923,4225308.082327292,3224889.6966121276,3274889.6966121276
K000000298,Christliches Krankenhaus Quakenbrück GmbH,7.9384,52.6681,Danziger Str. 2,49610,Quakenbrück,Niedersachsen,"Christliches Krankenhaus Quakenbrück GmbH, Danziger Straße 2, 49610 Quakenbrück",Niedersachsen,4181548.3286178163,3286317.753019011,50000,0.0,0,4156548.3286178163,4206548.328617817,3261317.753019011,3311317.753019011
K000000299,Nordwest-Krankenhaus Sanderbusch gGmbH,8.0068,53.5076,Am Gut Sanderbusch 1,26452,Sande,Niedersachsen,"Nordwest-Krankenhaus Sanderbusch gGmbH, Am Gut Sanderbusch 1, 26452 Sande",Niedersachsen,4188760.868690558,3379578.3783774767,50000,58.02850881543275,7,4163760.868690558,4213760.868690558,3354578.3783774767,3404578.3783774767
K000000300,Hümmling Hospital Sögel gGmbH,7.5191,52.8432,Mühlenstr. 17,49751,Sögel,Niedersachsen,"Hümmling Hospital Sögel gGmbH, Mühlenstraße 17, 49751 Sögel",Niedersachsen,4153866.848016118,3306678.527049548,50000,208.9497541882752,71,4128866.848016118,4178866.848016118,3281678.527049548,3331678.527049548
K000000301,Niels Stensen Kliniken Elisabeth-Kranknehaus Thuine,7.4899,52.4978,Klosterstr. 4,49832,Thuine,Niedersachsen,"Niels Stensen Kliniken Elisabeth-Kranknehaus Thuine, Klosterstraße 4, 49832 Thuine",Niedersachsen,4150565.9121818766,3268330.6753559234,50000,208.98314194463933,44,4125565.9121818766,4175565.9121818766,3243330.6753559234,3293330.6753559234
K000000302,St. Johannes-Hospital gGmbH,8.1396,53.3925,Bleichenpfad 9,26316,Varel,Niedersachsen,"St. Johannes-Hospital gGmbH, Bleichenpfad 9, 26316 Varel",Niedersachsen,4197236.870599825,3366539.2685046815,50000,110.50910537197346,29,4172236.870599825,4222236.870599825,3341539.2685046815,3391539.2685046815
K000000303,St. Marienhospital Vechta,8.2867,52.7257,Marienstr. 6-8,49377,Vechta,Niedersachsen,"St. Marienhospital Vechta, Marienstraße 6-8, 49377 Vechta",Niedersachsen,4205254.610767115,3292114.3176082415,50000,0.0,0,4180254.610767115,4230254.610767115,3267114.3176082415,3317114.3176082415
K000000304,Krankenhaus Rheiderland,7.3524,53.168,Neue Str. 22,26826,Weener,Niedersachsen,"Krankenhaus Rheiderland, Neue Straße 22, 26826 Weener",Niedersachsen,4143970.571406216,3343197.8526050025,50000,207.03287266191413,58,4118970.571406216,4168970.571406216,3318197.8526050025,3368197.8526050025
K000000305,Krankenhaus Johanneum,8.4317,52.8939,Feldstr. 1,27793,Wildeshausen,Niedersachsen,"Krankenhaus Johanneum, Feldstrasse 1, 27793 Wildeshausen",Niedersachsen,4215455.242744568,3310606.525252046,50000,28.174117202625588,10,4190455.242744568,4240455.242744568,3285606.525252046,3335606.525252046
K000000307,Klinikum Wilhelmshaven gGmbH,8.0825,53.5454,Friedrich-Paffrath-Str. 100,26389,Wilhelmshaven,Niedersachsen,"Klinikum Wilhelmshaven gGmbH, Friedrich-Paffrath-Straße 100, 26389 Wilhelmshaven",Niedersachsen,4193894.3824486663,3383648.182501804,50000,81.15265907536823,10,4168894.3824486663,4218894.382448666,3358648.182501804,3408648.182501804
K000000308,Krankenhaus Wittmund gGmbH,7.7885,53.5719,Dohuser Weg 10,26409,Wittmund,Niedersachsen,"Krankenhaus Wittmund gGmbH, Dohuser Weg 10, 26409 Wittmund",Niedersachsen,4174503.547534134,3387150.8863602905,50000,33.110888192176,6,4149503.547534134,4199503.547534134,3362150.8863602905,3412150.8863602905
K000000309,Fachklinik Bad Bentheim,7.1622,52.3171,Am Bade 1,48455,Bad Bentheim,Niedersachsen,"Fachklinik Bad Bentheim, Am Bade 1, 48455 Bad Bentheim",Niedersachsen,4127540.3588908417,3249054.2224543663,50000,137.38262552843867,23,4102540.3588908417,4152540.3588908417,3224054.2224543663,3274054.2224543663
K000000310,St. Josefs-Hospital Cloppenburg,8.04,52.8477,Krankenhausstr. 13,49661,Cloppenburg,Niedersachsen,"St. Josefs-Hospital Cloppenburg, Krankenhausstraße 13, 49661 Cloppenburg",Niedersachsen,4188961.257030042,3306106.9818586893,50000,12.910078500660317,1,4163961.257030042,4213961.257030042,3281106.9818586893,3331106.9818586893
K000000311,Niels-Stensen-Kliniken Franziskus-Hospital Harderberg,8.0737,52.2376,Alte Rothenfelder Str. 23,49124,Georgsmarienhütte,Niedersachsen,"Niels-Stensen-Kliniken Franziskus-Hospital Harderberg, Alte Rothenfelder Straße 23, 49124 Georgsmarienhütte",Niedersachsen,4189423.9524672218,3238177.6483796607,50000,69.51576795511444,9,4164423.9524672218,4214423.952467222,3213177.6483796607,3263177.6483796607
K000000312,Ammerland-Klinik Westerstede,7.919,53.2587,Lange Str. 38,26655,Westerstede,Niedersachsen,"Ammerland-Klinik Westerstede, Lange Straße 38, 26655 Westerstede",Niedersachsen,4182134.3212092416,3352053.6538081705,50000,78.83448673843559,9,4157134.3212092416,4207134.321209242,3327053.6538081705,3377053.6538081705
K000000313,Johann-Wilhelm-Ritter-Klinik Zentrum für dermatologische Phototherapie GmbH & Co. KG,8.1527,52.1134,Parkstr. 35-37,49214,Bad Rothenfelde,Niedersachsen,"Johann-Wilhelm-Ritter-Klinik Zentrum für dermatologische Phototherapie GmbH & Co. KG, Parkstr. 35-37, 49214 Bad Rothenfelde",Niedersachsen,4194467.264287367,3224221.8734160936,50000,22.09733127391055,4,4169467.2642873675,4219467.264287367,3199221.8734160936,3249221.8734160936
K000000314,MediClin Hedon Klinik,7.3588,52.5119,Hedonallee 1,49811,Lingen (Ems),Niedersachsen,"MediClin Hedon Klinik, Hedonallee 1, 49811 Lingen (Ems)",Niedersachsen,4141725.9547225386,3270213.856426232,50000,241.09887226321143,48,4116725.9547225386,4166725.9547225386,3245213.856426232,3295213.856426232
K000000315,Marien Hospital Papenburg Aschendorf,7.3941,53.0755,Hauptkanal rechts 74-75,26871,Papenburg,Niedersachsen,"Marien Hospital Papenburg Aschendorf, Hauptkanal rechts 74-75, 26871 Papenburg",Niedersachsen,4146384.6066907737,3332809.1890027197,50000,188.81852530159523,54,4121384.6066907737,4171384.6066907737,3307809.1890027197,3357809.1890027197
K000000316,Westerstede,7.919,53.2587,Lange Str. 38,26655,Westerstede,Niedersachsen,"Westerstede, Lange Straße 38, 26655 Westerstede",Niedersachsen,4182134.3212092416,3352053.6538081705,50000,78.83448673843559,9,4157134.3212092416,4207134.321209242,3327053.6538081705,3377053.6538081705
K000000317,Christliches Kinderhospital Osnabrück GmbH,8.0522,52.2699,Johannisfreiheit 1,49074,Osnabrück,Niedersachsen,"Christliches Kinderhospital Osnabrück GmbH, Johannisfreiheit 1, 49074 Osnabrück",Niedersachsen,4188052.238148297,3241809.678331698,50000,81.21834570848841,10,4163052.238148297,4213052.238148297,3216809.678331698,3266809.678331698
K000000318,Inselkrankenhaus Borkum,6.6712,53.5857,Gartenstr. 20,26757,Borkum,Niedersachsen,"Inselkrankenhaus Borkum, Gartenstraße 20, 26757 Borkum",Niedersachsen,4100611.7815453717,3391512.9889429323,50000,73.64367761481344,5,4075611.7815453717,4125611.7815453717,3366512.9889429323,3416512.9889429323
K000000319,STENUM Ortho GmbH,8.5553,53.0796,Heilstättenweg 1,27777,Ganderkesee,Niedersachsen,"STENUM Ortho GmbH, Heilstättenweg 1, 27777 Ganderkesee",Niedersachsen,4224186.446309893,3331095.23409276,50000,143.42924029431256,40,4199186.446309893,4249186.446309893,3306095.23409276,3356095.23409276
K000000320,Klinikum Bremen-Mitte,8.8365,53.0743,St.-Jürgen-Str. 1,28205,Bremen,Bremen,"Klinikum Bremen-Mitte, St.-Jürgen-Straße 1, 28205 Bremen",Bremen,4243018.849670724,3330167.130919364,50000,169.8546170424485,42,4218018.849670724,4268018.849670724,3305167.130919364,3355167.130919364
K000000321,Klinikum Bremen-Ost,8.9402,53.0643,Züricher Str. 40,28325,Bremen,Bremen,"Klinikum Bremen-Ost, Züricher Straße 40, 28325 Bremen",Bremen,4249952.141379786,3328948.0438532205,50000,162.53084629565362,34,4224952.141379786,4274952.141379786,3303948.0438532205,3353948.0438532205
K000000322,Klinikum Bremen-Nord,8.5937,53.1842,Hammersbecker Str. 228,28755,Bremen,Bremen,"Klinikum Bremen-Nord, Hammersbecker Straße 228, 28755 Bremen",Bremen,4226986.914862663,3342682.831570326,50000,168.58586700584664,44,4201986.914862663,4251986.914862663,3317682.831570326,3367682.831570326
K000000323,Klinikum Links der Weser,8.8187,53.0356,Senator-Weßling-Str. 1,28277,Bremen,Bremen,"Klinikum Links der Weser, Senator-Weßling-Str. 1, 28277 Bremen",Bremen,4241755.298188355,3325880.3290559216,50000,159.74062067819932,39,4216755.298188355,4266755.298188355,3300880.3290559216,3350880.3290559216
K000000324,DIAKO Ev. Diakonie-Krankenhaus gemeinnützige GmbH,8.7454,53.1258,Gröpelinger Heerstr. 406,28239,Bremen,Bremen,"DIAKO Ev. Diakonie-Krankenhaus gemeinnützige GmbH, Gröpelinger Heerstr. 406, 28239 Bremen",Bremen,4237013.658896045,3335998.9977402617,50000,162.58814323820343,42,4212013.658896045,4262013.658896045,3310998.9977402617,3360998.9977402617
K000000325,Krankenhaus St. Joseph-Stift Bremen GmbH,8.8359,53.0826,Schwachhauser Heerstr. 54,28209,Bremen,Bremen,"Krankenhaus St. Joseph-Stift Bremen GmbH, Schwachhauser Heerstraße 54, 28209 Bremen",Bremen,4242993.578344119,3331091.3018217604,50000,169.17719839190698,42,4217993.578344119,4267993.578344119,3306091.3018217604,3356091.3018217604
K000000326,Rotes Kreuz Krankenhaus Bremen gGmbH,8.8033,53.0693,St.-Pauli-Deich 24,28199,Bremen,Bremen,"Rotes Kreuz Krankenhaus Bremen gGmbH, St.-Pauli-Deich 24, 28199 Bremen",Bremen,4240784.6688620215,3329646.949825446,50000,157.7855325350873,40,4215784.6688620215,4265784.6688620215,3304646.949825446,3354646.949825446
K000000327,Roland Klinik gGmbH,8.8239,53.0566,Niedersachsendamm 72-74,28201,Bremen,Bremen,"Roland Klinik gGmbH, Niedersachsendamm 72-74, 28201 Bremen",Bremen,4242142.265394309,3328211.291312016,50000,164.29560538099386,41,4217142.265394309,4267142.265394309,3303211.291312016,3353211.291312016
K000000328,AMEOS Klinikum Dr. Heines Bremen,8.941,53.0756,Rockwinkeler Landstr. 110,28325,Bremen,Bremen,"AMEOS Klinikum Dr. Heines Bremen, Rockwinkeler Landstraße 110, 28325 Bremen",Bremen,4250024.268275391,3330204.616052911,50000,157.40593478734738,32,4225024.268275391,4275024.268275391,3305204.616052911,3355204.616052911
K000000329,Paracelsus-Klinik Bremen,8.8774,53.0796,In der Vahr 65,28329,Bremen,Bremen,"Paracelsus-Klinik Bremen, In der Vahr 65, 28329 Bremen",Bremen,4245769.027778482,3330713.7133909715,50000,156.39914178148197,35,4220769.027778482,4270769.027778482,3305713.7133909715,3355713.7133909715
K000000330,Klinikum Bremerhaven Reinkenheide gGmbH,8.6367,53.5379,Postbrookstr. 103,27574,Bremerhaven,Bremen,"Klinikum Bremerhaven Reinkenheide gGmbH, Postbrookstraße 103, 27574 Bremerhaven",Bremen,4230608.799332071,3381982.548899763,50000,79.82833705610093,10,4205608.799332071,4255608.799332071,3356982.548899763,3406982.548899763
