hospital_id,KName,lon,lat,Str,PLZ,Ort,Bundesland,Adresse,KV,x_center_m,y_center_m,cell_size_m,rail_length_in_cell_km_1885,rail_segments_hitting_cell_1885,x_min,x_max,y_min,y_max
K000000002,Diakonissenkrankenhaus Flensburg,9.426,54.7904,Knuthstr. 1,24939,Flensburg,Schleswig-Holstein,"Diakonissenkrankenhaus Flensburg, Knuthstr. 1, 24939 Flensburg",Schleswig-Holstein,4284063.680874565,3520661.6586438394,10000,34.53746505955813,10,4279063.680874565,4289063.680874565,3515661.6586438394,3525661.6586438394
K000000003,Malteser Krankenhaus St. Franziskus-Hospital,9.4216,54.793,Waldstr. 17,24939,Flensburg,Schleswig-Holstein,"Malteser Krankenhaus St. Franziskus-Hospital, Waldstraße 17, 24939 Flensburg",Schleswig-Holstein,4283782.918033585,3520953.2399278237,10000,33.64212129999944,10,4278782.918033585,4288782.918033585,3515953.2399278237,3525953.2399278237
K000000004,Städtisches Krankenhaus Kiel GmbH,10.1162,54.3224,Chemnitzstr. 33,24116,Kiel,Schleswig-Holstein,"Städtisches Krankenhaus Kiel GmbH, Chemnitzstr. 33, 24116 Kiel",Schleswig-Holstein,4328562.788163073,3468440.8663023724,10000,31.372415585440287,8,4323562.788163073,4333562.788163073,3463440.8663023724,3473440.8663023724
K000000005,Sankt Elisabeth Krankenhaus Kiel,10.1271,54.3168,Königsweg 8,24103,Kiel,Schleswig-Holstein,"Sankt Elisabeth Krankenhaus Kiel, Königsweg 8, 24103 Kiel",Schleswig-Holstein,4329273.319929826,3467818.8743014503,10000,32.237875752176656,8,4324273.319929826,4334273.319929826,3462818.8743014503,3472818.8743014503
K000000006,Park-Klinik GmbH,10.1256,54.3267,Goethestr. 11,24116,Kiel,Schleswig-Holstein,"Park-Klinik GmbH, Goethestrasse 11, 24116 Kiel",Schleswig-Holstein,4329173.733636578,3468920.406320483,10000,32.71766817336886,8,4324173.733636578,4334173.733636578,3463920.406320483,3473920.406320483
K000000007,Lubinus Clinicum,10.1169,54.3537,Steenbeker Weg 25,24106,Kiel,Schleswig-Holstein,"Lubinus Clinicum, Steenbeker Weg 25, 24106 Kiel",Schleswig-Holstein,4328602.617124513,3471924.0993981217,10000,17.719275575899463,6,4323602.617124513,4333602.617124513,3466924.0993981217,3476924.0993981217
K000000008,Klinik Flechsig GmbH,10.1162,54.3224,Chemnitzstr. 33,24116,Kiel,Schleswig-Holstein,"Klinik Flechsig GmbH, Chemnitzstraße 33, 24116 Kiel",Schleswig-Holstein,4328562.788163073,3468440.8663023724,10000,31.372415585440287,8,4323562.788163073,4333562.788163073,3463440.8663023724,3473440.8663023724
K000000009,Kath. Marien-Krankenhaus Lübeck gemeinnützige GmbH,10.6851,53.8623,Parade 3,23552,Lübeck,Schleswig-Holstein,"Kath. Marien-Krankenhaus Lübeck gemeinnützige GmbH, Parade 3, 23552 Lübeck",Schleswig-Holstein,4366080.861902422,3417446.3719349066,10000,33.302536134535295,10,4361080.861902422,4371080.861902422,3412446.3719349066,3422446.3719349066
K000000010,DRK-Fachklinik Hahnknüll gGmbH,9.9468,54.0984,Hahnknüll 58,24537,Neumünster,Schleswig-Holstein,"DRK-Fachklinik Hahnknüll gGmbH, Hahnknüll 58, 24537 Neumünster",Schleswig-Holstein,4317518.879449323,3443508.560190071,10000,35.66749172040583,5,4312518.879449323,4322518.879449323,3438508.560190071,3448508.560190071
K000000012,Johanniter-Krankenhaus Geesthacht GmbH,10.3854,53.4316,Am Runden Berge 3,21502,Geesthacht,Schleswig-Holstein,"Johanniter-Krankenhaus Geesthacht GmbH, Am Runden Berge 3, 21502 Geesthacht",Schleswig-Holstein,4346618.478579923,3369371.4793781755,10000,9.538066925942369,4,4341618.478579923,4351618.478579923,3364371.4793781755,3374371.4793781755
K000000013,Johanniter Tagesklinik Schwarzenbek,10.4787,53.5058,Körnerplatz 6,21493,Schwarzenbek,Schleswig-Holstein,"Johanniter Tagesklinik Schwarzenbek, Körnerplatz 6, 21493 Schwarzenbek",Schleswig-Holstein,4352765.125847484,3377665.4490056788,10000,16.377646588413583,2,4347765.125847484,4357765.125847484,3372665.4490056788,3382665.4490056788
K000000014,Johanniter Tagesklnik Mölln,10.6864,53.6262,Wasserkrüger Weg 7,23879,Mölln,Schleswig-Holstein,"Johanniter Tagesklnik Mölln, Wasserkrüger Weg 7, 23879 Mölln",Schleswig-Holstein,4366418.669865862,3391174.1379039227,10000,20.205801551240295,3,4361418.669865862,4371418.669865862,3386174.1379039227,3396174.1379039227
K000000015,DRK-Krankenhaus Mölln-Ratzeburg gGmbH,10.7798,53.6893,Röpersberg 2,23909,Ratzeburg,Schleswig-Holstein,"DRK-Krankenhaus Mölln-Ratzeburg gGmbH, Röpersberg 2, 23909 Ratzeburg",Schleswig-Holstein,4372522.103034477,3398258.273351076,10000,22.62620443866093,4,4367522.103034477,4377522.103034477,3393258.273351076,3403258.273351076
K000000016,"Klinikum Nordfriesland gGmbH, Klinik Husum",9.0507,54.4824,Erichsenweg 16,25813,Husum,Schleswig-Holstein,"Klinikum Nordfriesland gGmbH, Klinik Husum, Erichsenweg 16, 25813 Husum",Schleswig-Holstein,4259455.570677312,3486644.221835525,10000,26.830651730690114,6,4254455.570677312,4264455.570677312,3481644.221835525,3491644.221835525
K000000017,"Klinikum Nordfriesland gGmbH, Klinik Niebüll",8.8448,54.7928,Gather Landstr. 75,25899,Niebüll,Schleswig-Holstein,"Klinikum Nordfriesland gGmbH, Klinik Niebüll, Gather Landstraße 75, 25899 Niebüll",Schleswig-Holstein,4246671.187045708,3521376.535804889,10000,28.26123071485387,5,4241671.187045708,4251671.187045708,3516376.535804889,3526376.535804889
K000000019,"Klinikum Nordfriesland gGmbH, Inselklinik Föhr-Amrum",8.5642,54.6851,Rebbelstieg 24,25938,Wyk,Schleswig-Holstein,"Klinikum Nordfriesland gGmbH, Inselklinik Föhr-Amrum, Rebbelstieg 24, 25938 Wyk",Schleswig-Holstein,4228375.971490202,3509717.5825659707,10000,0.0,0,4223375.971490202,4233375.971490202,3504717.5825659707,3514717.5825659707
K000000020,DIAKO Nordfriesland gGmbH (Fachklinik für Psychiatrie und Psychosomatik - stat. Angebote),8.985,54.6152,Gammeltoft 8-15,25821,Breklum,Schleswig-Holstein,"DIAKO Nordfriesland gGmbH (Fachklinik für Psychiatrie und Psychosomatik - stat. Angebote), Gammeltoft 8-15, 25821 Breklum",Schleswig-Holstein,4255407.988962222,3501479.108866842,10000,16.45228417471089,3,4250407.988962222,4260407.988962222,3496479.108866842,3506479.108866842
K000000022,DIAKO Nordfriesland gGmbH (Tagesklinik Husum),9.0506,54.4863,Theodor-Schäfer-Str. 1b,25813,Husum,Schleswig-Holstein,"DIAKO Nordfriesland gGmbH (Tagesklinik Husum), Theodor-Schäfer-Str. 1b, 25813 Husum",Schleswig-Holstein,4259454.894726628,3487078.2763443915,10000,27.226604288892776,6,4254454.894726628,4264454.894726628,3482078.2763443915,3492078.2763443915
K000000023,DIAKO Nordfriesland gGmbH (Tagesklinik Niebüll),8.8335,54.7867,Bahnhofstr. 24a,25899,Niebüll,Schleswig-Holstein,"DIAKO Nordfriesland gGmbH (Tagesklinik Niebüll), Bahnhofstraße 24a, 25899 Niebüll",Schleswig-Holstein,4245932.993349411,3520709.490628554,10000,30.273639126768916,5,4240932.993349411,4250932.993349411,3515709.490628554,3525709.490628554
K000000024,Asklepios Nordseeklinik Westerland/Sylt,8.3145,54.9256,Norderstr. 81,25980,Sylt/OT Westerland,Schleswig-Holstein,"Asklepios Nordseeklinik Westerland/Sylt, Norderstr. 81, 25980 Sylt/OT Westerland",Schleswig-Holstein,4212908.597348547,3536822.2175096935,10000,18.838893755091146,7,4207908.597348547,4217908.597348547,3531822.2175096935,3541822.2175096935
K000000025,Klinik Dr. Winkler,9.0559,54.48,Brinckmannstr. 6,25813,Husum,Schleswig-Holstein,"Klinik Dr. Winkler, Brinckmannstraße 6, 25813 Husum",Schleswig-Holstein,4259789.118189608,3486372.7479204214,10000,28.4770368130064,7,4254789.118189608,4264789.118189608,3481372.7479204214,3491372.7479204214
K000000026,Sana Kliniken Ostholstein GmbH - Inselklinik Fehmarn,11.1857,54.4415,Mummendorfer Weg 12,23769,Burg auf Fehmarn,Schleswig-Holstein,"Sana Kliniken Ostholstein GmbH - Inselklinik Fehmarn, Mummendorfer Weg 12, 23769 Burg auf Fehmarn",Schleswig-Holstein,4397945.164825873,3482319.6480205134,10000,13.553010270078826,5,4392945.164825873,4402945.164825873,3477319.6480205134,3487319.6480205134
K000000027,Sana Kliniken Ostholstein GmbH - Klinik Eutin,10.6013,54.1327,Hospitalstr. 22,23701,Eutin,Schleswig-Holstein,"Sana Kliniken Ostholstein GmbH - Klinik Eutin, Hospitalstraße 22, 23701 Eutin",Schleswig-Holstein,4360313.075865087,3447487.6429028427,10000,20.06229626168822,5,4355313.075865087,4365313.075865087,3442487.6429028427,3452487.6429028427
K000000028,Sana Kliniken Ostholstein GmbH - Klinik Oldenburg,10.8799,54.2902,Mühlenkamp 5,23758,Oldenburg i.H.,Schleswig-Holstein,"Sana Kliniken Ostholstein GmbH - Klinik Oldenburg, Mühlenkamp 5, 23758 Oldenburg i.H.",Schleswig-Holstein,4378310.360640407,3465200.0813520155,10000,9.755993418425907,2,4373310.360640407,4383310.360640407,3460200.0813520155,3470200.0813520155
K000000029,AMEOS Klinikum Neustadt,10.7952,54.1057,Wiesenhof 1,23730,Neustadt i. H.,Schleswig-Holstein,"AMEOS Klinikum Neustadt, Wiesenhof 1, 23730 Neustadt i. H.",Schleswig-Holstein,4373023.312473198,3444605.46158392,10000,18.86437356130231,4,4368023.312473198,4378023.312473198,3439605.46158392,3449605.46158392
K000000030,AMEOS Klinikum Lübeck,10.6912,53.85,Kahlhorststr. 33,23562,Lübeck,Schleswig-Holstein,"AMEOS Klinikum Lübeck, Kahlhorststraße 33, 23562 Lübeck",Schleswig-Holstein,4366495.4884577785,3416081.44877224,10000,32.14015033071995,10,4361495.4884577785,4371495.4884577785,3411081.44877224,3421081.44877224
K000000031,AMEOS Klinikum Heiligenhafen,10.9622,54.3741,Friedrich-Ebert-Str. 100,23774,Heiligenhafen,Schleswig-Holstein,"AMEOS Klinikum Heiligenhafen, Friedrich-Ebert-Straße 100, 23774 Heiligenhafen",Schleswig-Holstein,4383544.028417381,3474604.282811055,10000,4.098875240405997,2,4378544.028417381,4388544.028417381,3469604.282811055,3479604.282811055
K000000032,AMEOS Klinikum Kiel,10.1849,54.2966,Tiroler Ring 621-62,24147,Kiel,Schleswig-Holstein,"AMEOS Klinikum Kiel, Tiroler Ring 621-62, 24147 Kiel",Schleswig-Holstein,4333041.534276582,3465579.074019899,10000,30.53122651346952,5,4328041.534276582,4338041.534276582,3460579.074019899,3470579.074019899
K000000033,AMEOS Klinikum Preetz,10.2763,54.2387,Am Krankenhaus 5a,24211,Preetz,Schleswig-Holstein,"AMEOS Klinikum Preetz, Am Krankenhaus 5a, 24211 Preetz",Schleswig-Holstein,4339018.927373697,3459154.7846007836,10000,12.35892405470238,1,4334018.927373697,4344018.927373697,3454154.7846007836,3464154.7846007836
K000000034,AMEOS Tageslinik Oldenburg,10.8805,54.2921,Hoheluftstr. 10,23758,Oldenburg i. H.,Schleswig-Holstein,"AMEOS Klinikum Oldenburg, Hoheluftstraße 10, 23758 Oldenburg i. H.",Schleswig-Holstein,4378346.819519611,3465411.981595113,10000,9.578969419474001,2,4373346.819519611,4383346.819519611,3460411.981595113,3470411.981595113
K000000035,AMEOS Klinikum Oldenburg,10.8799,54.2902,Mühlenkamp 5,23758,Oldenburg i. H.,Schleswig-Holstein,"AMEOS Klinikum Oldenburg, Mühlenkamp 5, 23758 Oldenburg i. H.",Schleswig-Holstein,4378310.360640407,3465200.0813520155,10000,9.755993418425907,2,4373310.360640407,4383310.360640407,3460200.0813520155,3470200.0813520155
K000000036,Sankt Elisabeth Krankenhaus Eutin,10.6108,54.1379,Plöner Str. 42,23701,Eutin,Schleswig-Holstein,"Sankt Elisabeth Krankenhaus Eutin, Plöner Str. 42, 23701 Eutin",Schleswig-Holstein,4360929.206448489,3448071.501822372,10000,20.591917458083756,5,4355929.206448489,4365929.206448489,3443071.501822372,3453071.501822372
K000000037,HELIOS Agnes-Karll Krankenhaus Bad Schwartau [BSC] [BSC],10.694,53.9223,Am Hochkamp 21,23611,Bad Schwartau,Schleswig-Holstein,"HELIOS Agnes-Karll Krankenhaus Bad Schwartau [BSC] [BSC], Am Hochkamp 21, 23611 Bad Schwartau",Schleswig-Holstein,4366601.5620535165,3424128.710189926,10000,24.436867757423855,5,4361601.5620535165,4371601.5620535165,3419128.710189926,3429128.710189926
K000000038,AUGUST-BIER-KLINIK - Neurologie und Rehabilitation,10.5476,54.1648,Diekseepromendade 7-11,23714,Bad Malente-Gremsmühlen,Schleswig-Holstein,"AUGUST-BIER-KLINIK - Neurologie und Rehabilitation, Diekseepromendade 7-11, 23714 Bad Malente-Gremsmühlen",Schleswig-Holstein,4356774.769489458,3451031.8892357326,10000,18.958801760423327,4,4351774.769489458,4361774.769489458,3446031.8892357326,3456031.8892357326
K000000039,"Sana Kliniken Ostholstein GmbH, Klinik Middelburg",10.6836,54.0818,Middelburger Str. 1,23701,Süsel,Schleswig-Holstein,"Sana Kliniken Ostholstein GmbH, Klinik Middelburg, Middelburger Str. 1, 23701 Süsel",Schleswig-Holstein,4365748.04913619,3441871.290815537,10000,23.0127712942374,3,4360748.04913619,4370748.04913619,3436871.290815537,3446871.290815537
K000000040,Regio Kliniken GmbH - Klinikum Pinneberg,9.811,53.6549,Fahltskamp 74,25421,Pinneberg,Schleswig-Holstein,"Regio Kliniken GmbH - Klinikum Pinneberg, Fahltskamp 74, 25421 Pinneberg",Schleswig-Holstein,4308502.219749113,3394169.2342296834,10000,12.764986343994698,1,4303502.219749113,4313502.219749113,3389169.2342296834,3399169.2342296834
K000000041,Regio Kliniken GmbH - Klinikum Elmshorn,9.6839,53.7511,Agnes-Karll-Allee 17,25337,Elmshorn,Schleswig-Holstein,"Regio Kliniken GmbH - Klinikum Elmshorn, Agnes-Karll-Allee 17, 25337 Elmshorn",Schleswig-Holstein,4300144.993611282,3404903.908846411,10000,22.63156974749624,3,4295144.993611282,4305144.993611282,3399903.908846411,3409903.908846411
K000000043,Klinik Preetz,10.2763,54.2387,Am Krankenhaus 5,24306,Plön,Schleswig-Holstein,"Klinik Preetz, Am Krankenhaus 5, 24306 Plön",Schleswig-Holstein,4339018.927373697,3459154.7846007836,10000,12.35892405470238,1,4334018.927373697,4344018.927373697,3454154.7846007836,3464154.7846007836
K000000044,Fachklinik Freudenholm-Ruhleben / Klinische Abteilung,10.4459,54.137,Missionsweg 3,24306,Bösdorf,Schleswig-Holstein,"Fachklinik Freudenholm-Ruhleben / Klinische Abteilung, Missionsweg 3, 24306 Bösdorf",Schleswig-Holstein,4350150.181538862,3447892.641749911,10000,11.667163508894,1,4345150.181538862,4355150.181538862,3442892.641749911,3452892.641749911
K000000045,imland GmbH - imland Klinik Rendsburg,9.6579,54.297,Lilienstr. 20-28,24768,Rendsburg,Schleswig-Holstein,"imland GmbH - imland Klinik Rendsburg, Lilienstr. 20-28, 24768 Rendsburg",Schleswig-Holstein,4298721.164730315,3465660.8849064177,10000,29.744092659604394,8,4293721.164730315,4303721.164730315,3460660.8849064177,3470660.8849064177
K000000046,imland GmbH - imland Klinik Eckernförde,9.8178,54.4823,Schleswiger Str. 114-116,24340,Eckernförde,Schleswig-Holstein,"imland GmbH - imland Klinik Eckernförde, Schleswiger Str. 114-116, 24340 Eckernförde",Schleswig-Holstein,4309187.313897285,3486243.821033149,10000,29.148616276483295,4,4304187.313897285,4314187.313897285,3481243.821033149,3491243.821033149
K000000047,HELIOS Klinik Schleswig GmbH,9.5586,54.5178,St. Jürgener Str. 1-3,24837,Schleswig,Schleswig-Holstein,"HELIOS Klinik Schleswig GmbH, St. Jürgener Straße 1-3, 24837 Schleswig",Schleswig-Holstein,4292407.188796034,3490266.778553714,10000,26.702311030978173,8,4287407.188796034,4297407.188796034,3485266.778553714,3495266.778553714
K000000048,"HELIOS Fachklinik, Klinik für Erwachsenenpsychiatrie und Psychosomatische Medizin",9.5711,54.5223,St. Jürgener Str. 5a,24837,Schleswig,Schleswig-Holstein,"HELIOS Fachklinik, Klinik für Erwachsenenpsychiatrie und Psychosomatische Medizin, St. Jürgener Str. 5a, 24837 Schleswig",Schleswig-Holstein,4293219.924944723,3490762.6663589673,10000,26.050140515842145,7,4288219.924944723,4298219.924944723,3485762.6663589673,3495762.6663589673
K000000049,Margarethen Klinik gemeinnützige GmbH,9.9246,54.6588,Konsul-Lorentzen-Str. 3,24376,Kappeln,Schleswig-Holstein,"Margarethen Klinik gemeinnützige GmbH, Konsul-Lorentzen-Straße 3, 24376 Kappeln",Schleswig-Holstein,4316132.428899661,3505872.7730129953,10000,18.77166009119914,4,4311132.428899661,4321132.428899661,3500872.7730129953,3510872.7730129953
K000000050,Medizinische Klinik Borstel,10.1939,53.8211,Parkallee 35,23845,Borstel,Schleswig-Holstein,"Medizinische Klinik Borstel, Parkallee 35, 23845 Borstel",Schleswig-Holstein,4333771.633819363,3412665.3724599024,10000,10.198717001277197,2,4328771.633819363,4338771.633819363,3407665.3724599024,3417665.3724599024
K000000051,Psychiatrisches Krankenhaus Rickling,10.1745,53.9995,Daldorfer Str. 2,24635,Rickling,Schleswig-Holstein,"Psychiatrisches Krankenhaus Rickling, Daldorfer Straße 2, 24635 Rickling",Schleswig-Holstein,4332445.2732399395,3432515.1067521707,10000,11.63606403087065,1,4327445.2732399395,4337445.2732399395,3427515.1067521707,3437515.1067521707
K000000052,Psychiatrisches Krankenhaus Rickling (TK Bad Segeberg),10.3036,53.944,Schillerstr. 13a,23795,Bad Segeberg,Schleswig-Holstein,"Psychiatrisches Krankenhaus Rickling (TK Bad Segeberg), Schillerstraße 13a, 23795 Bad Segeberg",Schleswig-Holstein,4340939.052183179,3426366.8596163117,10000,21.67739576058472,3,4335939.052183179,4345939.052183179,3421366.8596163117,3431366.8596163117
K000000053,Klinikum Bad Bramstedt GmbH,9.8943,53.9041,Oskar-Alexander-Str. 26,24576,Bad Bramstedt,Schleswig-Holstein,"Klinikum Bad Bramstedt GmbH, Oskar-Alexander-Straße 26, 24576 Bad Bramstedt",Schleswig-Holstein,4314051.512158837,3421889.906479867,10000,12.21048888359721,2,4309051.512158837,4319051.512158837,3416889.906479867,3426889.906479867
K000000054,SK GmbH-Standort Am Kurpark,10.3083,53.9435,Am Kurpark 1,23795,Bad Segeberg,Schleswig-Holstein,"SK GmbH-Standort Am Kurpark, Am Kurpark 1, 23795 Bad Segeberg",Schleswig-Holstein,4341247.964870047,3426312.5223162314,10000,21.478025149026152,3,4336247.964870047,4346247.964870047,3421312.5223162314,3431312.5223162314
K000000055,SK GmbH-Standort Praxisklinik Norderstedt,9.9945,53.7045,Heidbergstr. 98,22846,Norderstedt,Schleswig-Holstein,"SK GmbH-Standort Praxisklinik Norderstedt, Heidbergstraße 98, 22846 Norderstedt",Schleswig-Holstein,4320636.7318844665,3399672.616779767,10000,1.4178696670807256,1,4315636.7318844665,4325636.7318844665,3394672.616779767,3404672.616779767
K000000056,SK GmbH-Standort Allgemeine Klinik,10.3093,53.9414,Krankenhausstr. 2,23795,Bad Segeberg,Schleswig-Holstein,"SK GmbH-Standort Allgemeine Klinik, Krankenhausstraße 2, 23795 Bad Segeberg",Schleswig-Holstein,4341314.653707406,3426079.1081824107,10000,21.449244543556404,3,4336314.653707406,4346314.653707406,3421079.1081824107,3431079.1081824107
K000000057,Klinikum Itzehoe,9.5019,53.9409,Robert-Koch-Str. 2,25524,Itzehoe,Schleswig-Holstein,"Klinikum Itzehoe, Robert-Koch-Str. 2, 25524 Itzehoe",Schleswig-Holstein,4288284.861744386,3426092.5983293597,10000,17.685310188510396,4,4283284.861744386,4293284.861744386,3421092.5983293597,3431092.5983293597
K000000059,Krankenhaus Reinbek St. Adolf-Stift GmbH,10.2407,53.5107,Hamburger Str. 41,21465,Reinbek,Schleswig-Holstein,"Krankenhaus Reinbek St. Adolf-Stift GmbH, Hamburger Straße 41, 21465 Reinbek",Schleswig-Holstein,4336970.413866331,3378132.400189492,10000,26.92851947632785,6,4331970.413866331,4341970.413866331,3373132.400189492,3383132.400189492
K000000060,DRK-Norddeutsches Epilepsiezentrum für Kinder und Jugendliche,10.2094,54.2889,Henry-Dunant-Str. 6 - 10,24223,Schwentinental,Schleswig-Holstein,"DRK-Norddeutsches Epilepsiezentrum für Kinder und Jugendliche, Henry-Dunant-Str. 6 - 10, 24223 Schwentinental",Schleswig-Holstein,4334639.605379865,3464726.544793063,10000,27.973620720341184,4,4329639.605379865,4339639.605379865,3459726.544793063,3469726.544793063
K000000061,Vamed Ostseeklinik Damp,10.0221,54.5862,Seute-Deern-Ring 20,24351,Ostseebad Damp,Schleswig-Holstein,"Vamed Ostseeklinik Damp, Seute-Deern-Ring 20, 24351 Ostseebad Damp",Schleswig-Holstein,4322429.22189624,3497791.387411542,10000,8.455627845070103,1,4317429.22189624,4327429.22189624,3492791.387411542,3502791.387411542
K000000062,Kinderzentrum Pelzerhaken,10.8642,54.0885,Zum Leuchtturm 4,23730,Neustadt in Holstein,Schleswig-Holstein,"Kinderzentrum Pelzerhaken, Zum Leuchtturm 4, 23730 Neustadt in Holstein",Schleswig-Holstein,4377560.389376469,3442743.251241628,10000,8.158595682910379,4,4372560.389376469,4382560.389376469,3437743.251241628,3447743.251241628
K000000063,nordBLICK Augenklinik Bellevue GmbH,10.1488,54.3454,Lindenallee 21/23,24105,Kiel,Schleswig-Holstein,"nordBLICK Augenklinik Bellevue GmbH, Lindenallee 21/23, 24105 Kiel",Schleswig-Holstein,4330679.17187897,3471004.262479976,10000,21.56577820855903,8,4325679.17187897,4335679.17187897,3466004.262479976,3476004.262479976
K000000064,Paracelsus-Nordseeklinik Helgoland,7.8865,54.1786,Invasorenpfad 1040,27498,Helgoland,Schleswig-Holstein,"Paracelsus-Nordseeklinik Helgoland, Invasorenpfad 1040, 27498 Helgoland",Schleswig-Holstein,4182991.6676073777,3454448.090667455,10000,0.0,0,4177991.6676073777,4187991.6676073777,3449448.090667455,3459448.090667455
K000000065,FEK - Friedrich-Ebert-Krankenhaus Neumünster GmbH,9.9928,54.0654,Friesenstr. 11,24534,Neumünster,Schleswig-Holstein,"FEK - Friedrich-Ebert-Krankenhaus Neumünster GmbH, Friesenstraße 11, 24534 Neumünster",Schleswig-Holstein,4320528.499728398,3439834.94005504,10000,38.245303181218155,6,4315528.499728398,4325528.499728398,3434834.94005504,3444834.94005504
K000000066,CURSCHMANN KLINIK der Klinikgruppe Dr. Guth GmbH & Co. KG,10.7836,53.998,Saunaring 6,23669,Timmendorfer Strand,Schleswig-Holstein,"CURSCHMANN KLINIK der Klinikgruppe Dr. Guth GmbH & Co. KG, Saunaring 6, 23669 Timmendorfer Strand",Schleswig-Holstein,4372396.235216148,3432612.5312309735,10000,15.997928682494514,4,4367396.235216148,4377396.235216148,3427612.5312309735,3437612.5312309735
K000000067,Vorwerker Fachklinik Kinder- und Jugendpsychiatrie (stat. Bereich Lübeck),10.681,53.892,Triftstr. 139-143,23554,Lübeck,Schleswig-Holstein,"Vorwerker Fachklinik Kinder- und Jugendpsychiatrie (stat. Bereich Lübeck), Triftstraße 139-143, 23554 Lübeck",Schleswig-Holstein,4365779.556875441,3420748.830191649,10000,27.64733280649922,7,4360779.556875441,4370779.556875441,3415748.830191649,3425748.830191649
K000000068,Vorwerker Fachklinik (Tagesklinik Lübeck),10.681,53.892,Triftstr. 139-143,23554,Lübeck,Schleswig-Holstein,"Vorwerker Fachklinik (Tagesklinik Lübeck), Triftstraße 139-143, 23554 Lübeck",Schleswig-Holstein,4365779.556875441,3420748.830191649,10000,27.64733280649922,7,4360779.556875441,4370779.556875441,3415748.830191649,3425748.830191649
K000000069,Vorwerker Fachklinik (Tagesklinik Büchen),10.6231,53.4726,Lauenburger Str. 39,21514,Büchen,Schleswig-Holstein,"Vorwerker Fachklinik (Tagesklinik Büchen), Lauenburger Straße 39, 21514 Büchen",Schleswig-Holstein,4362378.962985752,3374043.7629233385,10000,23.210842173279442,4,4357378.962985752,4367378.962985752,3369043.7629233385,3379043.7629233385
K000000070,Vorwerker Fachklinik (Tagesklinik Eutin),10.6013,54.1327,Hospitalstr. 22,23701,Eutin,Schleswig-Holstein,"Vorwerker Fachklinik (Tagesklinik Eutin), Hospitalstraße 22, 23701 Eutin",Schleswig-Holstein,4360313.075865087,3447487.6429028427,10000,20.06229626168822,5,4355313.075865087,4365313.075865087,3442487.6429028427,3452487.6429028427
K000000072,Klinik Klosterstraße GmbH,9.9947,54.0787,Klosterstr. 63-65,24536,Neumünster,Schleswig-Holstein,"Klinik Klosterstraße GmbH, Klosterstraße 63-65, 24536 Neumünster",Schleswig-Holstein,4320653.033503845,3441315.0034968043,10000,37.796220690633255,6,4315653.033503845,4325653.033503845,3436315.0034968043,3446315.0034968043
K000000073,Schön Klinik Neustadt,10.8291,54.0908,Am Kiebitzberg 10,23730,Neustadt in Holstein,Schleswig-Holstein,"Schön Klinik Neustadt, Am Kiebitzberg 10, 23730 Neustadt in Holstein",Schleswig-Holstein,4375260.29568337,3442972.316388374,10000,14.305815293110484,4,4370260.29568337,4380260.29568337,3437972.316388374,3447972.316388374
K000000074,Westküstenklinikum Heide,9.0804,54.199,Esmarchstr. 50,25746,Heide,Schleswig-Holstein,"Westküstenklinikum Heide, Esmarchstraße 50, 25746 Heide",Schleswig-Holstein,4260972.813930081,3455083.9129554722,10000,25.097031791496097,4,4255972.813930081,4265972.813930081,3450083.9129554722,3460083.9129554722
K000000075,Westküstenklinikum Brunsbüttel,9.146,53.8997,Delbrückstr. 2,25541,Brunsbüttel,Schleswig-Holstein,"Westküstenklinikum Brunsbüttel, Delbrückstrasse 2, 25541 Brunsbüttel",Schleswig-Holstein,4264855.527723712,3421726.2140651555,10000,7.063801739395252,2,4259855.527723712,4269855.527723712,3416726.2140651555,3426726.2140651555
K000000076,Praxisklinik Kronshagen,10.098,54.3376,Eichkoppelweg 74,24119,Kronshagen,Schleswig-Holstein,"Praxisklinik Kronshagen, Eichkoppelweg 74, 24119 Kronshagen",Schleswig-Holstein,4327375.923467798,3470130.6155361985,10000,28.22454329884165,9,4322375.923467798,4332375.923467798,3465130.6155361985,3475130.6155361985
K000000077,Krankenhaus Rotes Kreuz Lübeck -Geriatriezentrum-,10.7058,53.8754,Marlistr. 10,23566,Lübeck,Schleswig-Holstein,"Krankenhaus Rotes Kreuz Lübeck -Geriatriezentrum-, Marlistr. 10, 23566 Lübeck",Schleswig-Holstein,4367428.500483857,3418917.207761716,10000,39.140579121433476,12,4362428.500483857,4372428.500483857,3413917.207761716,3423917.207761716
K000000078,Asklepios Klinik Bad Oldesloe,10.3637,53.8126,Schützenstaße 55,23843,Bad Oldesloe,Schleswig-Holstein,"Asklepios Klinik Bad Oldesloe, Schützenstaße 55, 23843 Bad Oldesloe",Schleswig-Holstein,4344960.602428455,3411762.51389132,10000,30.40650174005008,5,4339960.602428455,4349960.602428455,3406762.51389132,3416762.51389132
K000000079,Schön Klinik Bad Bramstedt,9.8884,53.9047,Birkenweg 10,24576,Bad Bramstedt,Schleswig-Holstein,"Schön Klinik Bad Bramstedt, Birkenweg 10, 24576 Bad Bramstedt",Schleswig-Holstein,4313663.763755817,3421957.258576208,10000,12.20303236331279,2,4308663.763755817,4318663.763755817,3416957.258576208,3426957.258576208
K000000080,Klinik für Geriatrie Ratzeburg GmbH,10.7692,53.6824,Röpersberg 47,23909,Ratzeburg,Schleswig-Holstein,"Klinik für Geriatrie Ratzeburg GmbH, Röpersberg 47, 23909 Ratzeburg",Schleswig-Holstein,4371830.038958823,3397482.9701400576,10000,24.77631151958594,4,4366830.038958823,4376830.038958823,3392482.9701400576,3402482.9701400576
K000000082,Paracelsus-Klinik Henstedt-Ulzburg,10.0052,53.7483,Wilstedter Str. 134,24558,Henstedt-Ulzburg,Schleswig-Holstein,"Henstedt-Ulzburg, Wilstedter Straße 134, 24558 Henstedt-Ulzburg",Schleswig-Holstein,4321343.099009675,3404546.837882907,10000,13.890253672287919,5,4316343.099009675,4326343.099009675,3399546.837882907,3409546.837882907
K000000083,Curtius Klinik,10.5659,54.1714,Neue Kampstr. 2,23714,Bad Malente,Schleswig-Holstein,"Curtius Klinik, Neue Kampstrasse 2, 23714 Bad Malente",Schleswig-Holstein,4357964.443784299,3451775.540590252,10000,20.993945773572907,5,4352964.443784299,4362964.443784299,3446775.540590252,3456775.540590252
K000000084,Klinik Manhagen,10.2571,53.6629,Sieker Landstr. 19,22927,Großhansdorf,Schleswig-Holstein,"Klinik Manhagen, Sieker Landstraße 19, 22927 Großhansdorf",Schleswig-Holstein,4337997.730715862,3395073.3544413997,10000,15.059779643038322,2,4332997.730715862,4342997.730715862,3390073.3544413997,3400073.3544413997
K000000085,Johanniter Klinik für Geriatrie Geesthacht,10.3826,53.4266,Johannes-Ritter-Str. 100,21502,Geesthacht,Schleswig-Holstein,"Johanniter Klinik für Geriatrie Geesthacht, Johannes-Ritter-Str. 100, 21502 Geesthacht",Schleswig-Holstein,4346435.326127027,3368814.087482195,10000,10.480658981020296,4,4341435.326127027,4351435.326127027,3363814.087482195,3373814.087482195
K000000086,HELIOS Klinik Kiel,10.1164,54.3046,Hamburger Chaussee 77,24113,Kiel,Schleswig-Holstein,"HELIOS Klinik Kiel, Hamburger Chaussee 77, 24113 Kiel",Schleswig-Holstein,4328579.04883123,3466460.047375165,10000,33.114914251000386,8,4323579.04883123,4333579.04883123,3461460.047375165,3471460.047375165
K000000087,"VAMED Klinik Geesthacht: Akutbereich, enthalten sind nur die Daten der Patientinnen/Patienten der besonderen Einrichtung, ohne Patientinnen/Patienten aus dem Reha-Bereich",10.3826,53.4266,Johannes-Ritter-Str. 100,21502,Geesthacht,Schleswig-Holstein,"VAMED Klinik Geesthacht: Akutbereich, enthalten sind nur die Daten der Patientinnen/Patienten der besonderen Einrichtung, ohne Patientinnen/Patienten aus dem Reha-Bereich, Johannes-Ritter-Straße 100, 21502 Geesthacht",Schleswig-Holstein,4346435.326127027,3368814.087482195,10000,10.480658981020296,4,4341435.326127027,4351435.326127027,3363814.087482195,3373814.087482195
K000000088,"UNIVERSITÄTSKLINIKUM Schleswig-Holstein, Campus Kiel",10.1419,54.3298,Arnold-Heller-Str. 3,24105,Kiel,Schleswig-Holstein,"UNIVERSITÄTSKLINIKUM Schleswig-Holstein, Campus Kiel, Arnold-Heller-Straße 3, 24105 Kiel",Schleswig-Holstein,4330233.806547816,3469267.3455557753,10000,30.183182395932995,8,4325233.806547816,4335233.806547816,3464267.3455557753,3474267.3455557753
K000000089,"UNIVERSITÄTSKLINIKUM Schleswig-Holstein, Campus Lübeck",10.7093,53.8399,Ratzeburger Allee 160,23538,Lübeck,Schleswig-Holstein,"UNIVERSITÄTSKLINIKUM Schleswig-Holstein, Campus Lübeck, Ratzeburger Allee 160, 23538 Lübeck",Schleswig-Holstein,4367697.968344837,3414969.046453106,10000,30.697789172092662,10,4362697.968344837,4372697.968344837,3409969.046453106,3419969.046453106
K000000090,Zentrum für Integrative Psychiatrie - ZIP gGmbH,10.1438,54.3424,Niemannsweg 147,24105,Kiel,Schleswig-Holstein,"Zentrum für Integrative Psychiatrie - ZIP gGmbH, Niemannsweg 147, 24105 Kiel",Schleswig-Holstein,4330354.607008169,3470669.7555588447,10000,22.292586821055092,8,4325354.607008169,4335354.607008169,3465669.7555588447,3475669.7555588447
K000000091,Ameos Klinika Lübeck,10.692,53.8489,Weidenweg 9- 15,23562,Lübeck,Schleswig-Holstein,"Ameos Klinika Lübeck, Weidenweg 9- 15, 23562 Lübeck",Schleswig-Holstein,4366549.329595775,3415959.5442072907,10000,32.058785587585945,10,4361549.329595775,4371549.329595775,3410959.5442072907,3420959.5442072907
K000000092,"Sana Kliniken Lübeck GmbH, Krankenhaus Süd",10.6883,53.8492,Kronsforder Allee 71-73,23560,Lübeck,Schleswig-Holstein,"Sana Kliniken Lübeck GmbH, Krankenhaus Süd, Kronsforder Allee 71-73, 23560 Lübeck",Schleswig-Holstein,4366305.472248047,3415990.6076016733,10000,31.821497326889343,10,4361305.472248047,4371305.472248047,3410990.6076016733,3420990.6076016733
K000000093,Zentrum für Integratrive Psychiatrie - ZIP gGmbH,10.7037,53.834,Ratzeburger Allee 160,23538,Lübeck,Schleswig-Holstein,"Zentrum für Integratrive Psychiatrie - ZIP gGmbH, Ratzeburger Allee 160, 23538 Lübeck",Schleswig-Holstein,4367335.765349383,3414308.903165477,10000,30.710869638199707,10,4362335.765349383,4372335.765349383,3409308.903165477,3419308.903165477
K000000094,Psychiatrische Tagesklinik Neumünster gGmbH,9.988,54.0745,Parkstr. 17,24534,Neumünster,Schleswig-Holstein,"Psychiatrische Tagesklinik Neumünster gGmbH, Parkstr. 17, 24534 Neumünster",Schleswig-Holstein,4320214.336764236,3440847.664092621,10000,38.46943498806344,6,4315214.336764236,4325214.336764236,3435847.664092621,3445847.664092621
K000000095,Universitätsklinikum Hamburg-Eppendorf,9.9783,53.5903,Martinistr. 52,20246,Hamburg,Hamburg,"Universitätsklinikum Hamburg-Eppendorf, Martinistraße 52, 20246 Hamburg",Hamburg,4319562.888342086,3386964.249683469,10000,40.05436578525622,12,4314562.888342086,4324562.888342086,3381964.249683469,3391964.249683469
K000000096,Asklepios Klinik St. Georg,10.0186,53.5585,Lohmühlenstr. 5,20099,Hamburg,Hamburg,"Asklepios Klinik St. Georg, Lohmühlenstr. 5, 20099 Hamburg",Hamburg,4322232.729148497,3383425.3861594987,10000,41.25326932193681,15,4317232.729148497,4327232.729148497,3378425.3861594987,3388425.3861594987
K000000097,Asklepios Klinik Barmbek,10.0361,53.6065,Rübenkamp 220,22291,Hamburg,Hamburg,"Asklepios Klinik Barmbek, Rübenkamp 220, 22291 Hamburg",Hamburg,4323389.861911492,3388767.419120846,10000,26.00474504311769,8,4318389.861911492,4328389.861911492,3383767.419120846,3393767.419120846
K000000098,Schön Klinik Hamburg Eilbek,10.0527,53.5776,Dehnhaide 120,22081,Hamburg,Hamburg,"Schön Klinik Hamburg Eilbek, Dehnhaide 120, 22081 Hamburg",Hamburg,4324491.1681827,3385552.0060616676,10000,40.97340356417904,15,4319491.1681827,4329491.1681827,3380552.0060616676,3390552.0060616676
K000000099,Asklepios Klinik Altona,9.9011,53.5549,Paul-Ehrlich-Str. 1,22763,Hamburg,Hamburg,"Asklepios Klinik Altona, Paul-Ehrlich-Straße 1, 22763 Hamburg",Hamburg,4314444.776362332,3383029.079228064,10000,19.872398986148973,7,4309444.776362332,4319444.776362332,3378029.079228064,3388029.079228064
K000000100,Asklepios Klinikum Harburg,9.9501,53.4611,Eißendorfer Pferdeweg 52,21075,Hamburg,Hamburg,"Asklepios Klinikum Harburg, Eißendorfer Pferdeweg 52, 21075 Hamburg",Hamburg,4317685.291994511,3372587.4047006005,10000,21.18513149935651,5,4312685.291994511,4322685.291994511,3367587.4047006005,3377587.4047006005
K000000101,Asklepios  Westklinikum Hamburg GmbH,9.7737,53.583,Suurheid 20,22559,Hamburg,Hamburg,"Asklepios  Westklinikum Hamburg GmbH, Suurheid 20, 22559 Hamburg",Hamburg,4306010.438906847,3386175.0603040187,10000,12.064801654271465,3,4301010.438906847,4311010.438906847,3381175.0603040187,3391175.0603040187
K000000102,Asklepios Klinik Wandsbek,10.0884,53.5698,Alphonsstr. 14,22043,Hamburg,Hamburg,"Asklepios Klinik Wandsbek, Alphonsstraße 14, 22043 Hamburg",Hamburg,4326857.223491121,3384686.2987552956,10000,41.833775907110535,13,4321857.223491121,4331857.223491121,3379686.2987552956,3389686.2987552956
K000000103,Bundeswehrkrankenhaus Hamburg,10.0747,53.594,Lesserstr. 180,22049,Hamburg,Hamburg,"Bundeswehrkrankenhaus Hamburg, Lesserstraße 180, 22049 Hamburg",Hamburg,4325946.6773606725,3387378.3311831728,10000,28.929643450632017,9,4320946.6773606725,4330946.6773606725,3382378.3311831728,3392378.3311831728
K000000104,Albertinen Krankenhaus / Albertinen Haus gemeinnützige GmbH,9.9049,53.6305,Süntelstr. 11a,22457,Hamburg,Hamburg,"Albertinen Krankenhaus / Albertinen Haus gemeinnützige GmbH, Süntelstraße 11a, 22457 Hamburg",Hamburg,4314707.819783035,3391441.7521284763,10000,22.905292609923446,3,4309707.819783035,4319707.819783035,3386441.7521284763,3396441.7521284763
K000000105,AKK Altonaer Kinderkrankenhaus gGmbH,9.9134,53.5528,Bleickenallee 38,22763,Hamburg,Hamburg,"AKK Altonaer Kinderkrankenhaus gGmbH, Bleickenallee 38, 22763 Hamburg",Hamburg,4315259.753703934,3382794.34189652,10000,18.48918148622202,5,4310259.753703934,4320259.753703934,3377794.34189652,3387794.34189652
K000000106,Ev. Amalie Sieveking - Krankenhaus,10.1493,53.6409,Haselkamp 33,22359,Hamburg,Hamburg,"Ev. Amalie Sieveking - Krankenhaus, Haselkamp 33, 22359 Hamburg",Hamburg,4330875.840577923,3392605.142693367,10000,12.344901142802621,2,4325875.840577923,4335875.840577923,3387605.142693367,3397605.142693367
K000000107,BG Klinikum Hamburg gGmbH,10.1738,53.507,Bergedorfer Str. 10,21033,Hamburg,Hamburg,"BG Klinikum Hamburg gGmbH, Bergedorfer Straße 10, 21033 Hamburg",Hamburg,4332532.6179091185,3377707.9686900447,10000,31.518549031917043,9,4327532.6179091185,4337532.6179091185,3372707.9686900447,3382707.9686900447
K000000108,Evangelisches Krankenhaus Alsterdorf gemeinnützige GmbH,10.0245,53.6141,Elisabeth-Flügge-Str. 1,22337,Hamburg,Hamburg,"Evangelisches Krankenhaus Alsterdorf gemeinnützige GmbH, Elisabeth-Flügge-Straße 1, 22337 Hamburg",Hamburg,4322621.639028757,3389612.851480095,10000,20.541160603795614,4,4317621.639028757,4327621.639028757,3384612.851480095,3394612.851480095
K000000110,Heinrich Sengelmann Tagesklinik Ahrensburg,10.2415,53.6728,Carl-Barckmann-Str. 5,22926,Ahrensburg,Schleswig-Holstein,"Heinrich Sengelmann Tagesklinik Ahrensburg, Carl-Barckmann-Straße 5, 22926 Ahrensburg",Schleswig-Holstein,4336962.648865514,3396171.508352434,10000,13.173905574752096,2,4331962.648865514,4341962.648865514,3391171.508352434,3401171.508352434
K000000111,Heinrich Sengelmann Tagesklinik Reinbek,10.246,53.5215,Kinauweg 9,21465,Reinbek,Schleswig-Holstein,"Heinrich Sengelmann Tagesklinik Reinbek, Kinauweg 9, 21465 Reinbek",Schleswig-Holstein,4337317.940460046,3379335.4308625506,10000,22.923264623344632,6,4332317.940460046,4342317.940460046,3374335.4308625506,3384335.4308625506
K000000112,Heinrich Sengelmann Krankenhaus,10.1536,53.7575,Kayhuder Str. 65,23863,Bargfeld-Stegen,Schleswig-Holstein,"Heinrich Sengelmann Krankenhaus, Kayhuder Straße 65, 23863 Bargfeld-Stegen",Schleswig-Holstein,4331132.408163484,3405581.374836209,10000,9.394309403240497,2,4326132.408163484,4336132.408163484,3400581.374836209,3410581.374836209
K000000113,Israelitisches Krankenhaus in Hamburg,9.9912,53.606,Orchideenstieg 14,22297,Hamburg,Hamburg,"Israelitisches Krankenhaus in Hamburg, Orchideenstieg 14, 22297 Hamburg",Hamburg,4320417.422917345,3388711.217789853,10000,28.906483899317394,9,4315417.422917345,4325417.422917345,3383711.217789853,3393711.217789853
K000000114,Katholisches Kinderkrankenhaus Wilhelmstift gGmbH,10.164,53.5864,Liliencronstr. 130,22149,Hamburg,Hamburg,"Katholisches Kinderkrankenhaus Wilhelmstift gGmbH, Liliencronstraße 130, 22149 Hamburg",Hamburg,4331862.1038780585,3386542.3151300726,10000,15.35009797466989,2,4326862.1038780585,4336862.1038780585,3381542.3151300726,3391542.3151300726
K000000115,Helios ENDO-Klinik Hamburg,9.9545,53.5508,Holstenstr. 2,22767,Hamburg,Hamburg,"Helios ENDO-Klinik Hamburg, Holstenstraße 2, 22767 Hamburg",Hamburg,4317983.9087515855,3382569.2940207454,10000,28.915438169391855,11,4312983.9087515855,4322983.9087515855,3377569.2940207454,3387569.2940207454
K000000116,Krankenhaus Jerusalem,9.9665,53.5694,Moorkamp 2-6,20357,Hamburg,Hamburg,"Krankenhaus Jerusalem, Moorkamp 2-6, 20357 Hamburg",Hamburg,4318780.32945781,3384638.7276142896,10000,43.83566275960766,16,4313780.32945781,4323780.32945781,3379638.7276142896,3389638.7276142896
K000000117,HELIOS Mariahilf Klinik Hamburg,9.938,53.4707,Stader Str. 203 c,21075,Hamburg,Hamburg,"HELIOS Mariahilf Klinik Hamburg, Stader Straße 203 c, 21075 Hamburg",Hamburg,4316882.449239803,3373656.339455688,10000,19.21821054583246,4,4311882.449239803,4321882.449239803,3368656.339455688,3378656.339455688
K000000118,Kath. Marienkrankenhaus gemeinnützige GmbH,10.0308,53.5591,Alfredstr. 9,22087,Hamburg,Hamburg,"Kath. Marienkrankenhaus gemeinnützige GmbH, Alfredstraße 9, 22087 Hamburg",Hamburg,4323041.264670396,3383492.4314984325,10000,44.78750773154641,16,4318041.264670396,4328041.264670396,3378492.4314984325,3388492.4314984325
K000000119,Wilhelmsburger Krankenhaus Groß-Sand,9.986,53.5035,Groß-Sand 3,21107,Hamburg,Hamburg,"Wilhelmsburger Krankenhaus Groß-Sand, Groß-Sand 3, 21107 Hamburg",Hamburg,4320070.9433054235,3377304.7486052243,10000,23.952721117558426,8,4315070.9433054235,4325070.9433054235,3372304.7486052243,3382304.7486052243
K000000120,KLINIK DR. GUTH der Klinikgruppe Dr. Guth GmbH & Co. KG,9.854,53.5571,Jürgensallee 46-48,22609,Hamburg,Hamburg,"KLINIK DR. GUTH der Klinikgruppe Dr. Guth GmbH & Co. KG, Jürgensallee 46-48, 22609 Hamburg",Hamburg,4311323.428820921,3383279.1738272435,10000,18.319853532257966,6,4306323.428820921,4316323.428820921,3378279.1738272435,3388279.1738272435
K000000121,Krankenhaus Tabea,9.791,53.5646,Kösterbergstr. 32,22587,Hamburg,Hamburg,"Krankenhaus Tabea, Kösterbergstr. 32, 22587 Hamburg",Hamburg,4307150.369000316,3384124.0163290543,10000,12.03427566244067,2,4302150.369000316,4312150.369000316,3379124.0163290543,3389124.0163290543
K000000122,PRAXISKLINIK MÜMMELMANNSBERG der Klinikgruppe Dr. Guth GmbH & Co. KG,10.1473,53.5273,Oskar-Schlemmer-Str. 9-17,22115,Hamburg,Hamburg,"PRAXISKLINIK MÜMMELMANNSBERG der Klinikgruppe Dr. Guth GmbH & Co. KG, Oskar-Schlemmer-Str. 9-17, 22115 Hamburg",Hamburg,4330769.551332325,3379963.1171568707,10000,36.17679775475204,9,4325769.551332325,4335769.551332325,3374963.1171568707,3384963.1171568707
K000000124,Asklepios Klinik Nord - Heidberg,10.0286,53.6746,Tangstedter Landstr. 400,22417,Hamburg,Hamburg,"Asklepios Klinik Nord - Heidberg, Tangstedter Landstraße 400, 22417 Hamburg",Hamburg,4322890.324573078,3396345.5980059896,10000,4.923642474665408,1,4317890.324573078,4327890.324573078,3391345.5980059896,3401345.5980059896
K000000125,Praxis-Klinik Bergedorf,10.2062,53.494,Alte Holstenstr. 2 und 16,21031,Hamburg,Hamburg,"Praxis-Klinik Bergedorf, Alte Holstenstraße 2 und 16, 21031 Hamburg",Hamburg,4334686.6983639775,3376266.927943968,10000,28.732795806287136,6,4329686.6983639775,4339686.6983639775,3371266.927943968,3381266.927943968
K000000126,Bethesda Krankenhaus Bergedorf gGmbH,10.2366,53.4858,Glindersweg 80,21029,Hamburg,Hamburg,"Bethesda Krankenhaus Bergedorf gGmbH, Glindersweg 80, 21029 Hamburg",Hamburg,4336707.528478974,3375360.572211593,10000,28.17286902413844,6,4331707.528478974,4341707.528478974,3370360.572211593,3380360.572211593
K000000127,Universitäres Herz- und Gefäßzentrum UKE Hamburg GmbH,9.9739,53.5907,Martinistr. 52,20246,Hamburg,Hamburg,"Universitäres Herz- und Gefäßzentrum UKE Hamburg GmbH, Martinistraße 52, 20246 Hamburg",Hamburg,4319271.508669494,3387008.8590520755,10000,41.17043961251797,12,4314271.508669494,4324271.508669494,3382008.8590520755,3392008.8590520755
K000000128,Martini-Klinik am UKE GmbH,9.9783,53.5903,Martinistr. 52,20246,Hamburg,Hamburg,"Martini-Klinik am UKE GmbH, Martinistraße 52, 20246 Hamburg",Hamburg,4319562.888342086,3386964.249683469,10000,40.05436578525622,12,4314562.888342086,4324562.888342086,3381964.249683469,3391964.249683469
K000000129,Facharztklinik Hamburg,9.9726,53.5883,Martinistr. 78,20251,Hamburg,Hamburg,"Facharztklinik Hamburg, Martinistrasse 78, 20251 Hamburg",Hamburg,4319185.313030573,3386741.8109767195,10000,42.38169582706363,13,4314185.313030573,4324185.313030573,3381741.8109767195,3391741.8109767195
K000000130,AGAPLESION DIAKONIEKLINIKUM HAMBURG,9.9669,53.5723,Hohe Weide 17,20259,Hamburg,Hamburg,"AGAPLESION DIAKONIEKLINIKUM HAMBURG, Hohe Weide 17, 20259 Hamburg",Hamburg,4318806.982146049,3384961.436733425,10000,44.18083659806642,16,4313806.982146049,4323806.982146049,3379961.436733425,3389961.436733425
K000000131,Helios Klinik Bad Gandersheim,10.027,51.8735,Albert-Rohloff-Str. 2,37581,Bad Gandersheim,Niedersachsen,"Helios Klinik Bad Gandersheim, Albert-Rohloff-Straße 2, 37581 Bad Gandersheim",Niedersachsen,4322859.525236419,3195925.162090934,10000,27.98205171158391,5,4317859.525236419,4327859.525236419,3190925.162090934,3200925.162090934
K000000132,Asklepios Harzklinik Bad Harzburg,10.5754,51.8862,Ilsenburger Str. 95,38667,Bad Harzburg,Niedersachsen,"Asklepios Harzklinik Bad Harzburg, Ilsenburger Straße 95, 38667 Bad Harzburg",Niedersachsen,4360616.9156150175,3197494.1854714686,10000,19.264050084938148,6,4355616.9156150175,4365616.9156150175,3192494.1854714686,3202494.1854714686
K000000133,Klinik Dr. Muschinsky,10.4687,51.6238,Wiesenbek 7 - 10,37431,Bad Lauterberg,Niedersachsen,"Klinik Dr. Muschinsky, Wiesenbek 7 - 10, 37431 Bad Lauterberg",Niedersachsen,4353458.19962411,3168246.7089768685,10000,23.223250651735857,4,4348458.19962411,4358458.19962411,3163246.7089768685,3173246.7089768685
K000000134,Diabeteszentrum Bad Lauterberg,10.4716,51.628,Kirchberg 21,37431,Bad Lauterberg,Niedersachsen,"Diabeteszentrum Bad Lauterberg, Kirchberg 21, 37431 Bad Lauterberg",Niedersachsen,4353656.009221937,3168715.288178272,10000,20.78982163408024,4,4348656.009221937,4358656.009221937,3163715.288178272,3173715.288178272
K000000135,Städtisches Klinikum Braunschweig gGmbH,10.5101,52.2678,Freisestr. 9/10,38118,Braunschweig,Niedersachsen,"Städtisches Klinikum Braunschweig gGmbH, Freisestraße 9/10, 38118 Braunschweig",Niedersachsen,4355823.1663072845,3239919.9291671915,10000,46.88550965007143,17,4350823.1663072845,4360823.1663072845,3234919.9291671915,3244919.9291671915
K000000136,Krankenhaus Marienstift,10.545,52.2585,Helmstedter Str. 35,38102,Braunschweig,Niedersachsen,"Krankenhaus Marienstift, Helmstedter Str. 35, 38102 Braunschweig",Niedersachsen,4358213.417368327,3238902.3873614036,10000,56.86066848452531,19,4353213.417368327,4363213.417368327,3233902.3873614036,3243902.3873614036
K000000138,Stiftung Herzogin Elisabeth Hospital,10.5266,52.2331,Leipziger Str. 24,38124,Braunschweig,Niedersachsen,"Stiftung Herzogin Elisabeth Hospital, Leipziger Str. 24, 38124 Braunschweig",Niedersachsen,4356977.567180944,3236066.917619766,10000,39.966944500247145,12,4351977.567180944,4361977.567180944,3231066.917619766,3241066.917619766
K000000139,Kirchberg-Klinik Bad Lauterberg,10.4688,51.626,Kirchberg 7-11,37431,Bad Lauterberg,Niedersachsen,"Kirchberg-Klinik Bad Lauterberg, Kirchberg 7-11, 37431 Bad Lauterberg",Niedersachsen,4353463.553907723,3168491.522097729,10000,22.02587664831533,4,4348463.553907723,4358463.553907723,3163491.522097729,3173491.522097729
K000000140,Asklepios Harzklinik Clausthal-Zellerfeld,10.3336,51.8078,Windmühlenstr. 1,38678,Clausthal-Zellerfeld,Niedersachsen,"Asklepios Harzklinik Clausthal-Zellerfeld, Windmühlenstraße 1, 38678 Clausthal-Zellerfeld",Niedersachsen,4344008.831419092,3188667.3515076716,10000,17.95788232090435,4,4339008.831419092,4349008.831419092,3183667.3515076716,3193667.3515076716
K000000141,St. Martini GmbH Krankenhaus Duderstadt,10.2467,51.5167,Göttinger Str. 34,37115,Duderstadt,Niedersachsen,"St. Martini GmbH Krankenhaus Duderstadt, Göttinger Str. 34, 37115 Duderstadt",Niedersachsen,4338124.671527733,3156255.552760158,10000,11.376597013217907,3,4333124.671527733,4343124.671527733,3151255.552760158,3161255.552760158
K000000142,Einbecker BürgerSpital GmbH,9.8686,51.8336,Andershäuser Str. 8,37574,Einbeck,Niedersachsen,"Einbecker BürgerSpital GmbH, Andershäuser Str. 8, 37574 Einbeck",Niedersachsen,4311942.311863914,3191493.511859321,10000,19.432379343332244,5,4306942.311863914,4316942.311863914,3186493.511859321,3196493.511859321
K000000143,HELIOS Klinikum Gifhorn GmbH,10.5476,52.4969,Campus 6,38518,Gifhorn,Niedersachsen,"HELIOS Klinikum Gifhorn GmbH, Campus 6, 38518 Gifhorn",Niedersachsen,4358190.5533875,3265430.5859414637,10000,30.784565332622265,7,4353190.5533875,4363190.5533875,3260430.5859414637,3270430.5859414637
K000000144,Universitätsmedizin Göttingen,9.9427,51.551,Robert-Koch-Str. 40,37075,Göttingen,Niedersachsen,"Universitätsmedizin Göttingen, Robert-Koch-Straße 40, 37075 Göttingen",Niedersachsen,4317025.504755013,3160044.3508091765,10000,22.581363464756127,5,4312025.504755013,4322025.504755013,3155044.3508091765,3165044.3508091765
K000000145,Asklepios Fachklinikum Göttingen,9.9194,51.5251,Rosdorfer Weg 70,37081,Göttingen,Niedersachsen,"Asklepios Fachklinikum Göttingen, Rosdorfer Weg 70, 37081 Göttingen",Niedersachsen,4315406.172960525,3157164.280108587,10000,28.041190239343894,6,4310406.172960525,4320406.172960525,3152164.280108587,3162164.280108587
K000000146,Evangelisches Krankenhaus Göttingen-Weende gGmbH,9.9441,51.5545,An der Lutter 24,37075,Göttingen,Niedersachsen,"Evangelisches Krankenhaus Göttingen-Weende gGmbH, An der Lutter 24, 37075 Göttingen",Niedersachsen,4317122.910569483,3160433.681704938,10000,21.877013838402842,5,4312122.910569483,4322122.910569483,3155433.681704938,3165433.681704938
K000000147,Asklepios Harzklinik Goslar,10.4425,51.9284,Kösliner Str. 12,38642,Goslar,Niedersachsen,"Asklepios Harzklinik Goslar, Kösliner Straße 12, 38642 Goslar",Niedersachsen,4351438.231367925,3202125.664561551,10000,34.59604151434893,9,4346438.231367925,4356438.231367925,3197125.664561551,3207125.664561551
K000000148,Klinikum Hann. Münden,9.636,51.4097,Vogelsang 105,34346,Hann. Münden,Niedersachsen,"Klinikum Hann. Münden, Vogelsang 105, 34346 Hann. Münden",Niedersachsen,4295673.801488304,3144385.224971038,10000,23.697796404059932,3,4290673.801488304,4300673.801488304,3139385.224971038,3149385.224971038
K000000149,HELIOS St. Marienberg Klinik Helmstedt,10.9998,52.2317,Conringstr. 26,38350,Helmstedt,Niedersachsen,"HELIOS St. Marienberg Klinik Helmstedt, Conringstraße 26, 38350 Helmstedt",Niedersachsen,4389307.173254277,3236249.901277971,10000,29.86455957350998,8,4384307.173254277,4394307.173254277,3231249.901277971,3241249.901277971
K000000150,AWO Psychiatriezentrum,10.8111,52.246,Vor dem Kaiserdom 10,38154,Königslutter am Elm,Niedersachsen,"AWO Psychiatriezentrum, Vor dem Kaiserdom 10, 38154 Königslutter am Elm",Niedersachsen,4376397.940869461,3237680.7280659243,10000,11.798156492967792,2,4371397.940869461,4381397.940869461,3232680.7280659243,3242680.7280659243
K000000151,"DR. FONTHEIM, Klinik für Psychiatrie, Psychotherapie und Psychosomatik",10.4313,52.023,Lindenstr. 15,38704,Liebenburg,Niedersachsen,"DR. FONTHEIM, Klinik für Psychiatrie, Psychotherapie und Psychosomatik, Lindenstraße 15, 38704 Liebenburg",Niedersachsen,4350605.459274378,3212646.744366468,10000,17.50112447020941,4,4345605.459274378,4355605.459274378,3207646.744366468,3217646.744366468
K000000152,HELIOS Albert-Schweitzer-Klinik Northeim [NOM],9.9783,51.7299,Albert-Schweitzer-Weg 1,37154,Northeim,Niedersachsen,"HELIOS Albert-Schweitzer-Klinik Northeim [NOM], Albert-Schweitzer-Weg 1, 37154 Northeim",Niedersachsen,4319500.737985978,3179947.555276049,10000,22.655280819197625,3,4314500.737985978,4324500.737985978,3174947.555276049,3184947.555276049
K000000153,Helios Klinik Herzberg/Osterode,10.3289,51.6629,Dr.-Frössel-Allee 1,37412,Herzberg am Harz,Niedersachsen,"Helios Klinik Herzberg/Osterode, Dr.-Frössel-Allee 1, 37412 Herzberg am Harz",Niedersachsen,4343757.335659082,3172544.0708346423,10000,30.78341998214208,6,4338757.335659082,4348757.335659082,3167544.0708346423,3177544.0708346423
K000000154,Klinikum Peine gGmbH,10.2371,52.3032,Virchowstr. 8h,31226,Peine,Niedersachsen,"Klinikum Peine gGmbH, Virchowstraße 8h, 31226 Peine",Niedersachsen,4337173.432933617,3243763.3280922673,10000,36.02107151396999,10,4332173.432933617,4342173.432933617,3238763.3280922673,3248763.3280922673
K000000155,Asklepios Fachklinikum Tiefenbrunn,9.8699,51.4994,Tiefenbrunn _,37124,Rosdorf,Niedersachsen,"Asklepios Fachklinikum Tiefenbrunn, Tiefenbrunn _, 37124 Rosdorf",Niedersachsen,4311965.675240987,3154309.907922691,10000,27.311759271718575,5,4306965.675240987,4316965.675240987,3149309.907922691,3159309.907922691
K000000156,St. Elisabeth-Krankenhaus Salzgitter,10.3711,52.0454,Liebenhaller Str. 20,38259,Salzgitter,Niedersachsen,"St. Elisabeth-Krankenhaus Salzgitter, Liebenhaller Str. 20, 38259 Salzgitter",Niedersachsen,4346460.517987481,3215116.373493704,10000,23.386587085964425,6,4341460.517987481,4351460.517987481,3210116.373493704,3220116.373493704
K000000157,Helios Klinikum Salzgitter GmbH,10.3195,52.1549,Kattowitzer Str. 191,38226,Salzgitter,Niedersachsen,"Helios Klinikum Salzgitter GmbH, Kattowitzer Str. 191, 38226 Salzgitter",Niedersachsen,4342866.812906244,3227283.457028864,10000,32.33703269176965,7,4337866.812906244,4347866.812906244,3222283.457028864,3232283.457028864
K000000158,Helios Klinik Wittingen GmbH,10.739,52.7304,Gustav-Dobberkau-Str. 5,29378,Wittingen,Niedersachsen,"Helios Klinik Wittingen GmbH, Gustav-Dobberkau-Straße 5, 29378 Wittingen",Niedersachsen,4370923.617321948,3291527.3150086016,10000,30.20790876922563,6,4365923.617321948,4375923.617321948,3286527.3150086016,3296527.3150086016
K000000159,Städtisches Klinikum Wolfenbüttel gGmbH,10.5331,52.1801,Alter Weg 80,38302,Wolfenbüttel,Niedersachsen,"Städtisches Klinikum Wolfenbüttel gGmbH, Alter Weg 80, 38302 Wolfenbüttel",Niedersachsen,4357464.93484512,3230172.937461161,10000,36.52333360480818,8,4352464.93484512,4362464.93484512,3225172.937461161,3235172.937461161
K000000160,Klinikum Wolfsburg,10.7688,52.4132,Sauerbruchstr. 7,38440,Wolfsburg,Niedersachsen,"Klinikum Wolfsburg, Sauerbruchstraße 7, 38440 Wolfsburg",Niedersachsen,4373311.772773199,3256253.262389895,10000,17.806048094251842,3,4368311.772773199,4378311.772773199,3251253.262389895,3261253.262389895
K000000161,Venenzentrum Braunschweig,10.5439,52.2633,Kastanienallee 18-19,38102,Braunschweig,Niedersachsen,"Venenzentrum Braunschweig, Kastanienallee 18-19, 38102 Braunschweig",Niedersachsen,4358134.30671181,3239435.916242878,10000,55.37608761642052,19,4353134.30671181,4363134.30671181,3234435.916242878,3244435.916242878
K000000162,Asklepios Kliniken Schildautal,10.2169,51.8832,Karl-Herold-Str. 1,38723,Seesen,Niedersachsen,"Asklepios Kliniken Schildautal, Karl-Herold-Straße 1, 38723 Seesen",Niedersachsen,4335934.948188805,3197026.301262084,10000,31.535451195920697,7,4330934.948188805,4340934.948188805,3192026.301262084,3202026.301262084
K000000163,Evangelisches Krankenhaus Göttingen-Weende gGmbH - Krankenhaus Neu-Mariahilf,9.942,51.5414,Waldweg 9,37073,Göttingen,Niedersachsen,"Evangelisches Krankenhaus Göttingen-Weende gGmbH - Krankenhaus Neu-Mariahilf, Waldweg 9, 37073 Göttingen",Niedersachsen,4316976.103414644,3158976.304954335,10000,22.763375800450522,6,4311976.103414644,4321976.103414644,3153976.304954335,3163976.304954335
K000000164,AGAPLESION KRANKENHAUS NEU BETHLEHEM gGmbH,9.9422,51.5403,Humboldtallee 8,37073,Göttingen,Niedersachsen,"AGAPLESION KRANKENHAUS NEU BETHLEHEM gGmbH, Humboldtallee 8, 37073 Göttingen",Niedersachsen,4316989.882169501,3158853.9094254086,10000,22.68617515085572,6,4311989.882169501,4321989.882169501,3153853.9094254086,3163853.9094254086
K000000165,Augenklinik Dr. Hoffmann,10.5276,52.2555,Wolfenbütteler Str. 82,38102,Braunschweig,Niedersachsen,"Augenklinik Dr. Hoffmann, Wolfenbütteler Str. 82, 38102 Braunschweig",Niedersachsen,4357027.770277232,3238559.831800862,10000,51.6101666986585,17,4352027.770277232,4362027.770277232,3233559.831800862,3243559.831800862
K000000166,AMEOS Klinikum Alfeld,9.8325,51.9942,Landrat-Beushausen-Str. 26,31061,Alfeld,Niedersachsen,"AMEOS Klinikum Alfeld, Landrat-Beushausen-Str. 26, 31061 Alfeld",Niedersachsen,4309494.958630657,3209367.8676297474,10000,15.949723440369901,3,4304494.958630657,4314494.958630657,3204367.8676297474,3214367.8676297474
K000000167,AGAPLESION EV. BATHILDISKRANKENHAUS gemeinnützige GmbH,9.2738,51.9853,Maulbeerallee 4,31812,Bad Pyrmont,Niedersachsen,"AGAPLESION EV. BATHILDISKRANKENHAUS gemeinnützige GmbH, Maulbeerallee 4, 31812 Bad Pyrmont",Niedersachsen,4271110.657486157,3208612.8674195935,10000,15.775357079958342,3,4266110.657486157,4276110.657486157,3203612.8674195935,3213612.8674195935
K000000168,"Kliniken Landkreis Diepholz gGmbH, Klinik Bassum",8.7296,52.8444,Marie-Hackfeld-Str. 6,27211,Bassum,Niedersachsen,"Kliniken Landkreis Diepholz gGmbH, Klinik Bassum, Marie-Hackfeld-Straße 6, 27211 Bassum",Niedersachsen,4235403.905258604,3304707.371146786,10000,18.86468620324395,2,4230403.905258604,4240403.905258604,3299707.371146786,3309707.371146786
K000000170,Krankenhaus Lindenbrunn,9.5498,52.1095,Lindenbrunn 1,31863,Coppenbrügge,Niedersachsen,"Krankenhaus Lindenbrunn, Lindenbrunn 1, 31863 Coppenbrügge",Niedersachsen,4290156.802047722,3222279.1543927067,10000,15.789797207955534,2,4285156.802047722,4295156.802047722,3217279.1543927067,3227279.1543927067
K000000172,"Kliniken Landkreis Diepholz gGmbH, Klinik Diepholz",8.3767,52.6105,Eschfeldstaße 8,49356,Diepholz,Niedersachsen,"Kliniken Landkreis Diepholz gGmbH, Klinik Diepholz, Eschfeldstaße 8, 49356 Diepholz",Niedersachsen,4211045.636528655,3279158.467505919,10000,18.277034744092006,2,4206045.636528655,4216045.636528655,3274158.467505919,3284158.467505919
K000000173,Johanniter-Krankenhaus Gronau GmbH,9.7677,52.0827,Johanniterstr. 1-3,31028,Gronau,Niedersachsen,"Johanniter-Krankenhaus Gronau GmbH, Johanniterstraße 1-3, 31028 Gronau",Niedersachsen,4305075.51465673,3219227.2480895706,10000,28.55983151574779,5,4300075.51465673,4310075.51465673,3214227.2480895706,3224227.2480895706
K000000174,Gesundheitseinrichtungen Hameln-Pyrmont GmbH - Sana Klinikum Hameln-Pyrmont,9.3523,52.107,Saint-Maur-Platz 1,31785,Hameln,Niedersachsen,"Gesundheitseinrichtungen Hameln-Pyrmont GmbH - Sana Klinikum Hameln-Pyrmont, Saint-Maur-Platz 1, 31785 Hameln",Niedersachsen,4276623.9494140055,3222102.9246242433,10000,29.677941778042573,4,4271623.9494140055,4281623.9494140055,3217102.9246242433,3227102.9246242433
K000000176,Sophienklinik GmbH,9.7506,52.3701,Bischofsholer Damm 160,30173,Hannover,Niedersachsen,"Sophienklinik GmbH, Bischofsholer Damm 160, 30173 Hannover",Niedersachsen,4304013.144725992,3251210.227125037,10000,43.7812270617943,13,4299013.144725992,4309013.144725992,3246210.227125037,3256210.227125037
K000000177,DRK-Krankenhaus Clementinenhaus,9.7449,52.3868,Lützerodestr. 1,30161,Hannover,Niedersachsen,"DRK-Krankenhaus Clementinenhaus, Lützerodestraße 1, 30161 Hannover",Niedersachsen,4303631.453968472,3253069.8237850005,10000,45.21144104783789,12,4298631.453968472,4308631.453968472,3248069.8237850005,3258069.8237850005
K000000178,Kinder- und Jugendkrankenhaus AUF DER BULT,9.7778,52.3601,Janusz-Korczak-Allee 12,30173,Hannover,Niedersachsen,"Kinder- und Jugendkrankenhaus AUF DER BULT, Janusz-Korczak-Allee 12, 30173 Hannover",Niedersachsen,4305862.343434323,3250091.501682743,10000,39.413846700867744,12,4300862.343434323,4310862.343434323,3245091.501682743,3255091.501682743
K000000179,DIAKOVERE Henriettenstift,9.7538,52.3698,Marienstr. 72-90,30171,Hannover,Niedersachsen,"DIAKOVERE Henriettenstift, Marienstraße 72-90, 30171 Hannover",Niedersachsen,4304230.985230496,3251176.1035281364,10000,41.96465268386392,13,4299230.985230496,4309230.985230496,3246176.1035281364,3256176.1035281364
K000000180,DIAKOVERE Friederikenstift,9.7244,52.3711,Humboldtstr. 5,30169,Hannover,Niedersachsen,"DIAKOVERE Friederikenstift, Humboldtstraße 5, 30169 Hannover",Niedersachsen,4302229.071892359,3251327.9337315434,10000,48.55750512371769,12,4297229.071892359,4307229.071892359,3246327.9337315434,3256327.9337315434
K000000181,KRH Klinikum Siloah,9.8087,52.4073,Stadionbrücke 4,30449,Hannover,Niedersachsen,"KRH Klinikum Siloah, Stadionbrücke 4, 30449 Hannover",Niedersachsen,4307981.300120578,3255337.603155711,10000,20.598642946264288,8,4302981.300120578,4312981.300120578,3250337.603155711,3260337.603155711
K000000183,KRH Klinikum Nordstadt,9.7145,52.3926,Haltenhoffstr. 41,30167,Hannover,Niedersachsen,"KRH Klinikum Nordstadt, Haltenhoffstraße 41, 30167 Hannover",Niedersachsen,4301564.216288085,3253722.889674511,10000,38.39947054323887,11,4296564.216288085,4306564.216288085,3248722.889674511,3258722.889674511
K000000184,Medizinische Hochschule Hannover,9.8059,52.384,Carl-Neuberg-Str. 1,30625,Hannover,Niedersachsen,"Medizinische Hochschule Hannover, Carl-Neuberg-Straße 1, 30625 Hannover",Niedersachsen,4307783.806428844,3252745.4461576887,10000,33.482445836616435,12,4302783.806428844,4312783.806428844,3247745.4461576887,3257745.4461576887
K000000185,Vinzenzkrankenhaus Hannover,9.8146,52.3589,Lange-Feld-Str. 31,30559,Hannover,Niedersachsen,"Vinzenzkrankenhaus Hannover, Lange-Feld-Strasse 31, 30559 Hannover",Niedersachsen,4308369.041728942,3249950.956767842,10000,36.05310737449469,10,4303369.041728942,4313369.041728942,3244950.956767842,3254950.956767842
K000000186,BDH-Klinik Hessisch Oldendorf gGmbH,9.2483,52.1737,Greitstr. 18-28,31840,Hessisch Oldendorf,Niedersachsen,"BDH-Klinik Hessisch Oldendorf gGmbH, Greitstraße 18-28, 31840 Hessisch Oldendorf",Niedersachsen,4269575.613330224,3229592.693899345,10000,12.245698682349678,1,4264575.613330224,4274575.613330224,3224592.693899345,3234592.693899345
K000000187,St. Bernward Krankenhaus,9.947,52.1467,Treibestr. 9,31134,Hildesheim,Niedersachsen,"St. Bernward Krankenhaus, Treibestr. 9, 31134 Hildesheim",Niedersachsen,4317371.962742237,3226324.4175129225,10000,28.431878350547713,5,4312371.962742237,4322371.962742237,3221324.4175129225,3231324.4175129225
K000000188,Helios Klinikum Hildesheim GmbH,9.9765,52.1515,Senator-Braun-Allee 33,31135,Hildesheim,Niedersachsen,"Helios Klinikum Hildesheim GmbH, Senator-Braun-Allee 33, 31135 Hildesheim",Niedersachsen,4319391.514578234,3226857.452259155,10000,29.11459888960022,5,4314391.514578234,4324391.514578234,3221857.452259155,3231857.452259155
K000000189,AGAPLESION EVANGELISCHES KRANKENHAUS HOLZMINDEN,9.4547,51.8343,Forster Weg 34,37603,Holzminden,Niedersachsen,"AGAPLESION EVANGELISCHES KRANKENHAUS HOLZMINDEN, Forster Weg 34, 37603 Holzminden",Niedersachsen,4283412.247321541,3191703.748638527,10000,12.364190553541528,3,4278412.247321541,4288412.247321541,3186703.748638527,3196703.748638527
K000000190,KRH Psychiatrie Langenhagen,9.7401,52.4438,Rohdehof 3,30853,Langenhagen,Niedersachsen,"KRH Psychiatrie Langenhagen, Rohdehof 3, 30853 Langenhagen",Niedersachsen,4303327.3954402385,3259413.5417412906,10000,17.44177522172576,3,4298327.3954402385,4308327.3954402385,3254413.5417412906,3264413.5417412906
K000000191,Paracelsus-Klinik am Silbersee,9.7576,52.4339,Oertzeweg 24,30851,Langenhagen,Niedersachsen,"Paracelsus-Klinik am Silbersee, Oertzeweg 24, 30851 Langenhagen",Niedersachsen,4304513.664066651,3258307.828928702,10000,20.70780703856887,4,4299513.664066651,4309513.664066651,3253307.828928702,3263307.828928702
K000000193,Burghof-Klinik,9.0816,52.1842,Ritterstr. 19,31737,Rinteln,Niedersachsen,"Burghof-Klinik, Ritterstraße 19, 31737 Rinteln",Niedersachsen,4258186.942447311,3230891.670193686,10000,23.325661917453846,6,4253186.942447311,4263186.942447311,3225891.670193686,3235891.670193686
K000000194,Klinikum Wahrendorff,9.9337,52.3449,Rudolf-Wahrendorff-Str. 22,31319,Sehnde OT Ilten,Niedersachsen,"Klinikum Wahrendorff, Rudolf-Wahrendorff-Str. 22, 31319 Sehnde OT Ilten",Niedersachsen,4316481.674571121,3248379.1128763696,10000,32.557472402556094,10,4311481.674571121,4321481.674571121,3243379.1128763696,3253379.1128763696
K000000195,Augenklinik Stadthagen,9.2064,52.3176,Brunnenstr. 12,31655,Stadthagen,Niedersachsen,"Augenklinik Stadthagen, Brunnenstr. 12, 31655 Stadthagen",Niedersachsen,4266884.384250747,3245634.2170857196,10000,25.560323755775965,4,4261884.384250747,4271884.384250747,3240634.2170857196,3250634.2170857196
K000000197,"Kliniken Landkreis Diepholz gGmbH, Klinik Sulingen",8.8053,52.6836,Schmelingstr. 47,27232,Sulingen,Niedersachsen,"Kliniken Landkreis Diepholz gGmbH, Klinik Sulingen, Schmelingstraße 47, 27232 Sulingen",Niedersachsen,4240207.757502387,3286729.487971854,10000,21.67428463019373,4,4235207.757502387,4245207.757502387,3281729.487971854,3291729.487971854
K000000201,DIAKOVERE Annastift,9.81,52.3692,Anna-von-Borries-Str. 1-7,30625,Hannover,Niedersachsen,"DIAKOVERE Annastift, Anna-von-Borries-Straße 1-7, 30625 Hannover",Niedersachsen,4308058.656674398,3251097.8725688043,10000,34.85325707013273,12,4303058.656674398,4313058.656674398,3246097.8725688043,3256097.8725688043
K000000202,Deister Süntel Klinik,9.4745,52.2076,Deisterallee 36,31848,Bad Münder,Niedersachsen,"Deister Süntel Klinik, Deisterallee 36, 31848 Bad Münder",Niedersachsen,4285077.047906273,3233229.030545588,10000,16.469151639847517,3,4280077.047906273,4290077.047906273,3228229.030545588,3238229.030545588
K000000203,KRH Geriatrie Langenhagen (Akut-Geriatrie),9.7401,52.4438,Rohdehof 3,30853,Langenhagen,Niedersachsen,"KRH Geriatrie Langenhagen (Akut-Geriatrie), Rohdehof 3, 30853 Langenhagen",Niedersachsen,4303327.3954402385,3259413.5417412906,10000,17.44177522172576,3,4298327.3954402385,4308327.3954402385,3254413.5417412906,3264413.5417412906
K000000204,Helios Kliniken Mittelweser / Standort Nienburg,9.2245,52.6355,Ziegelkampstr. 39,31582,Nienburg,Niedersachsen,"Helios Kliniken Mittelweser, Ziegelkampstraße 39, 31582 Nienburg",Niedersachsen,4268497.382300123,3280993.3328440087,10000,31.45869114962742,4,4263497.382300123,4273497.382300123,3275993.3328440087,3285993.3328440087
K000000205,Helios Kliniken Mittelweser / Standort Stolzenau,9.0683,52.5159,Holzhäuser Weg 28,31592,Stolzenau,Niedersachsen,"Helios Kliniken Mittelweser, Holzhäuser Weg 28, 31592 Stolzenau",Niedersachsen,4257751.603554161,3267809.8015356283,10000,19.214152078617218,5,4252751.603554161,4262751.603554161,3262809.8015356283,3272809.8015356283
K000000206,KRH Klinikum Robert Koch Gehrden,9.5977,52.3041,Von-Reden-Str. 1,30989,Gehrden,Niedersachsen,"KRH Klinikum Robert Koch Gehrden, Von-Reden-Straße 1, 30989 Gehrden",Niedersachsen,4293558.349183736,3243912.945464558,10000,19.425471330273613,2,4288558.349183736,4298558.349183736,3238912.945464558,3248912.945464558
K000000207,KRH Klinikum Agnes Karll Laatzen,9.7987,52.3074,Hildesheimer Str. 158,30880,Laatzen,Niedersachsen,"KRH Klinikum Agnes Karll Laatzen, Hildesheimer Straße 158, 30880 Laatzen",Niedersachsen,4307269.901177495,3244223.3184184376,10000,20.236368952208082,6,4302269.901177495,4312269.901177495,3239223.3184184376,3249223.3184184376
K000000208,KRH Klinikum Großburgwedel,9.8617,52.4963,Fuhrberger Str. 8,30938,Burgwedel,Niedersachsen,"KRH Klinikum Großburgwedel, Fuhrberger Straße 8, 30938 Burgwedel",Niedersachsen,4311607.056325029,3265232.8170973198,10000,11.890292722468514,1,4306607.056325029,4316607.056325029,3260232.8170973198,3270232.8170973198
K000000209,AMEOS Klinikum Hildesheim,9.9842,52.1464,Goslarsche Landstr. 60,31135,Hildesheim,Niedersachsen,"AMEOS Klinikum Hildesheim, Goslarsche Landstraße 60, 31135 Hildesheim",Niedersachsen,4319918.426816956,3226289.8342826758,10000,28.56531170715954,5,4314918.426816956,4324918.426816956,3221289.8342826758,3231289.8342826758
K000000210,KRH Klinikum Neustadt am Rübenberge,9.4661,52.4934,Lindenstr. 75,31535,Neustadt am Rübenberge,Niedersachsen,"KRH Klinikum Neustadt am Rübenberge, Lindenstraße 75, 31535 Neustadt am Rübenberge",Niedersachsen,4284736.99815131,3265034.219599412,10000,12.536922505414891,2,4279736.99815131,4289736.99815131,3260034.219599412,3270034.219599412
K000000211,KRH Klinikum Lehrte,9.9836,52.3799,Manskestr. 22,31275,Lehrte,Niedersachsen,"KRH Klinikum Lehrte, Manskestraße 22, 31275 Lehrte",Niedersachsen,4319883.225634345,3252271.7332040328,10000,33.50231627108076,8,4314883.225634345,4324883.225634345,3247271.7332040328,3257271.7332040328
K000000213,KRH Psychiatrie Wunstorf,9.4308,52.4241,Südstr. 25,31515,Wunstorf,Niedersachsen,"KRH Psychiatrie Wunstorf, Südstraße 25, 31515 Wunstorf",Niedersachsen,4282278.84289646,3257341.291133551,10000,29.36776927065195,8,4277278.84289646,4287278.84289646,3252341.291133551,3262341.291133551
K000000214,MEDIAN Zentrum für Verhaltensmedizin Bad Pyrmont - Fachkrankenhaus,9.2525,51.9911,Bombergallee 11,31812,Bad Pyrmont,Niedersachsen,"MEDIAN Zentrum für Verhaltensmedizin Bad Pyrmont - Fachkrankenhaus, Bombergallee 11, 31812 Bad Pyrmont",Niedersachsen,4269654.05153053,3209272.97898649,10000,14.379591511080656,4,4264654.05153053,4274654.05153053,3204272.97898649,3214272.97898649
K000000215,AMEOS Klinikum Hameln,9.3635,52.1029,Wilhelmstr. 5,31785,Hameln,Niedersachsen,"AMEOS Klinikum Hameln, Wilhelmstraße 5, 31785 Hameln",Niedersachsen,4277387.2808839,3221639.974435189,10000,30.874067287956017,4,4272387.2808839,4282387.2808839,3216639.974435189,3226639.974435189
K000000216,MediClin Klinik für Akutpsychosomatik und Psychotherapie,9.4712,52.2082,Lug ins Land 5,31848,Bad Münder,Niedersachsen,"MediClin Klinik für Akutpsychosomatik und Psychotherapie, Lug ins Land 5, 31848 Bad Münder",Niedersachsen,4284851.952075732,3233297.4239793853,10000,17.262020813011798,3,4279851.952075732,4289851.952075732,3228297.4239793853,3238297.4239793853
K000000217,"Aller-Weser-Klinik gGmbH, Krankenhaus Achim",9.0048,53.0183,Bierdener Mühle 2,28832,Achim,Niedersachsen,"Aller-Weser-Klinik gGmbH, Krankenhaus Achim, Bierdener Mühle 2, 28832 Achim",Niedersachsen,4254211.7794108195,3323768.2973052557,10000,17.363065508446535,3,4249211.7794108195,4259211.7794108195,3318768.2973052557,3328768.2973052557
K000000218,Diana Krankenhausbetriebsgesellschaft mbH,10.5888,53.081,Dahlenburger Str. 2 a,29549,Bad Bevensen,Niedersachsen,"Diana Krankenhausbetriebsgesellschaft mbH, Dahlenburger Straße 2 a, 29549 Bad Bevensen",Niedersachsen,4360458.442065713,3330448.0097796237,10000,11.540654554447748,1,4355458.442065713,4365458.442065713,3325448.0097796237,3335448.0097796237
K000000219,Falkenried Caduceus Klinik,10.602,53.0906,Niendorfer Weg 5,29549,Bad Bevensen,Niedersachsen,"Falkenried Caduceus Klinik, Niendorfer Weg 5, 29549 Bad Bevensen",Niedersachsen,4361334.081005919,3331523.524064879,10000,9.161064937087975,1,4356334.081005919,4366334.081005919,3326523.524064879,3336523.524064879
K000000220,OsteMed Klinik Bremervörde,9.1353,53.4713,Gnarrenburger Str. 117,27432,Bremervörde,Niedersachsen,"OsteMed Klinik Bremervörde, Gnarrenburger Straße 117, 27432 Bremervörde",Niedersachsen,4263575.823883254,3374063.663256185,10000,23.65313668363236,5,4258575.823883254,4268575.823883254,3369063.663256185,3379063.663256185
K000000221,Krankenhaus Buchholz,9.8736,53.3336,Steinbecker Str. 44,21244,Buchholz in der Nordheide,Niedersachsen,"Krankenhaus Buchholz, Steinbecker Straße 44, 21244 Buchholz in der Nordheide",Niedersachsen,4312578.630637694,3358405.0796186198,10000,28.722699312964213,4,4307578.630637694,4317578.630637694,3353405.0796186198,3363405.0796186198
K000000222,Elbe Klinikum Buxtehude,9.6751,53.4617,Am Krankenhaus 1,21614,Buxtehude,Niedersachsen,"Elbe Klinikum Buxtehude, Am Krankenhaus 1, 21614 Buxtehude",Niedersachsen,4299418.24739873,3372701.3711469052,10000,17.53234548582061,2,4294418.24739873,4304418.24739873,3367701.3711469052,3377701.3711469052
K000000223,ALLGEMEINES KRANKENHAUS CELLE,10.0847,52.6286,Siemensplatz 4,29223,Celle,Niedersachsen,"ALLGEMEINES KRANKENHAUS CELLE, Siemensplatz 4, 29223 Celle",Niedersachsen,4326735.352179893,3279948.976872749,10000,40.42487443561013,11,4321735.352179893,4331735.352179893,3274948.976872749,3284948.976872749
K000000224,Helios Klinik Cuxhaven GmbH,8.6923,53.8522,Altenwalder Chaussee 10,27474,Cuxhaven,Niedersachsen,"Helios Klinik Cuxhaven GmbH, Altenwalder Chaussee 10, 27474 Cuxhaven",Niedersachsen,4234934.24596143,3416886.1282798867,10000,12.128878438949595,2,4229934.24596143,4239934.24596143,3411886.1282798867,3421886.1282798867
K000000225,Capio Elbe-Jeetzel-Klinik Dannenberg,11.0808,53.0832,Hermann-Löns-Str. 2,29451,Dannenberg,Niedersachsen,"Capio Elbe-Jeetzel-Klinik Dannenberg, Hermann-Löns-Straße 2, 29451 Dannenberg",Niedersachsen,4393423.976037963,3331071.7915531793,10000,21.61818293312401,4,4388423.976037963,4398423.976037963,3326071.7915531793,3336071.7915531793
K000000226,Heidekreis-Klinikum GmbH Krankenhaus Walsrode,9.5865,52.8591,Robert-Koch-Str. 4,29664,Walsrode,Niedersachsen,"Heidekreis-Klinikum GmbH Krankenhaus Walsrode, Robert-Koch-Straße 4, 29664 Walsrode",Niedersachsen,4293147.402945911,3305674.333301806,10000,23.603871615216484,4,4288147.402945911,4298147.402945911,3300674.333301806,3310674.333301806
K000000227,Waldklinik Jesteburg,9.9489,53.3193,Kleckerwaldweg 145,21266,Jesteburg,Niedersachsen,"Waldklinik Jesteburg, Kleckerwaldweg 145, 21266 Jesteburg",Niedersachsen,4317594.340535789,3356807.6092693782,10000,16.990644523183605,5,4312594.340535789,4322594.340535789,3351807.6092693782,3361807.6092693782
K000000229,Klinik Lilienthal,8.9073,53.1498,Moorhauser Landstr. 3c,28865,Lilienthal,Niedersachsen,"Klinik Lilienthal, Moorhauser Landstraße 3c, 28865 Lilienthal",Niedersachsen,4247891.238624754,3338494.3050945615,10000,11.926342505882946,1,4242891.238624754,4252891.238624754,3333494.3050945615,3343494.3050945615
K000000230,Psychiatrische Klinik Uelzen,10.5284,52.9668,An den Zehn Eichen 50,29525,Uelzen,Niedersachsen,"Psychiatrische Klinik Uelzen, An den Zehn Eichen 50, 29525 Uelzen",Niedersachsen,4356504.06913843,3317708.9769715797,10000,32.1494176695156,5,4351504.06913843,4361504.06913843,3312708.9769715797,3322708.9769715797
K000000231,Klinik Dr.Havemann,10.4103,53.238,Barckhausenstr. 57,21335,Lüneburg,Niedersachsen,"Klinik Dr.Havemann, Barckhausenstr. 57, 21335 Lüneburg",Niedersachsen,4348396.760682884,3347836.6240407587,10000,33.35504962206423,5,4343396.760682884,4353396.760682884,3342836.6240407587,3352836.6240407587
K000000232,Psychiatrische Klinik Lüneburg gemeinnützige GmbH,10.3868,53.2536,Am Wienebütteler Weg 1,21339,Lüneburg,Niedersachsen,"Psychiatrische Klinik Lüneburg gemeinnützige GmbH, Am Wienebütteler Weg 1, 21339 Lüneburg",Niedersachsen,4346818.278939675,3349563.981413552,10000,34.480957867724854,6,4341818.278939675,4351818.278939675,3344563.981413552,3354563.981413552
K000000233,Städtisches Klinikum Lüneburg gemeinnützige GmbH,10.3954,53.2404,Bögelstr. 1,21339,Lüneburg,Niedersachsen,"Städtisches Klinikum Lüneburg gemeinnützige GmbH, Bögelstraße 1, 21339 Lüneburg",Niedersachsen,4347400.392271648,3348098.1749270554,10000,34.01315346429674,5,4342400.392271648,4352400.392271648,3343098.1749270554,3353098.1749270554
K000000234,Kreiskrankenhaus Osterholz,8.7928,53.2338,Am Krankenhaus 4,27711,Osterholz-Scharmbeck,Niedersachsen,"Kreiskrankenhaus Osterholz, Am Krankenhaus 4, 27711 Osterholz-Scharmbeck",Niedersachsen,4240388.18363239,3347962.1551570315,10000,16.019919006002418,2,4235388.18363239,4245388.18363239,3342962.1551570315,3352962.1551570315
K000000235,Capio Krankenhaus Land Hadeln,8.8897,53.8126,Große Ortstr. 85,21762,Otterndorf,Niedersachsen,"Capio Krankenhaus Land Hadeln, Große Ortstraße 85, 21762 Otterndorf",Niedersachsen,4247856.2602672605,3412262.8903903402,10000,10.51678436981903,1,4242856.2602672605,4252856.2602672605,3407262.8903903402,3417262.8903903402
K000000236,Ev. Krankenhaus Ginsterhof GmbH,9.935,53.4043,Metzendorfer Weg 21,21224,Rosengarten,Niedersachsen,"Ev. Krankenhaus Ginsterhof GmbH, Metzendorfer Weg 21, 21224 Rosengarten",Niedersachsen,4316676.515308887,3366267.345417943,10000,10.08081177113812,2,4311676.515308887,4321676.515308887,3361267.345417943,3371267.345417943
K000000237,AGAPLESION DIAKONIEKLINIKUM ROTENBURG gemeinnützige GmbH,9.4131,53.1073,Elise-Averdieck-Str. 17,27356,Rotenburg (Wümme),Niedersachsen,"AGAPLESION DIAKONIEKLINIKUM ROTENBURG gemeinnützige GmbH, Elise-Averdieck-Str. 17, 27356 Rotenburg (Wümme)",Niedersachsen,4281692.752351909,3333373.578303605,10000,25.157524808264757,4,4276692.752351909,4286692.752351909,3328373.578303605,3338373.578303605
K000000240,Heidekreis-Klinikum GmbH Krankenhaus Soltau,9.8559,52.9894,Oeninger Weg 30,29614,Soltau,Niedersachsen,"Heidekreis-Klinikum GmbH Krankenhaus Soltau, Oeninger Weg 30, 29614 Soltau",Niedersachsen,4311322.6214594655,3320104.389027617,10000,44.93278063370659,6,4306322.6214594655,4316322.6214594655,3315104.389027617,3325104.389027617
K000000241,Elbe Klinikum Stade,9.4433,53.5957,Bremervörder Str. 111,21682,Stade,Niedersachsen,"Elbe Klinikum Stade, Bremervörder Straße 111, 21682 Stade",Niedersachsen,4284136.886408808,3387706.49715848,10000,16.491142064174905,3,4279136.886408808,4289136.886408808,3382706.49715848,3392706.49715848
K000000243,"Aller-Weser-Klinik gGmbH, Krankenhaus Verden",9.2351,52.914,Eitzer Str. 20,27283,Verden (Aller),Niedersachsen,"Aller-Weser-Klinik gGmbH, Krankenhaus Verden, Eitzer Straße 20, 27283 Verden (Aller)",Niedersachsen,4269543.325443668,3311975.13732562,10000,25.839458058505983,5,4264543.325443668,4274543.325443668,3306975.13732562,3316975.13732562
K000000244,Krankenhaus Winsen ( Luhe ),10.2004,53.3509,Friedrich-Lichtenauer-Allee 1,21423,Winsen ( Luhe ),Niedersachsen,"Krankenhaus Winsen ( Luhe ), Friedrich-Lichtenauer-Allee 1, 21423 Winsen ( Luhe )",Niedersachsen,4334346.214758644,3360341.3579498525,10000,27.08021583792141,3,4329346.214758644,4339346.214758644,3355341.3579498525,3365341.3579498525
K000000247,Klinik Fallingbostel,9.7059,52.869,Kolkweg 1,29683,Bad Fallingbostel,Niedersachsen,"Klinik Fallingbostel, Kolkweg 1, 29683 Bad Fallingbostel",Niedersachsen,4301194.3973265365,3306736.8348944765,10000,13.233888524853036,1,4296194.3973265365,4306194.3973265365,3301736.8348944765,3311736.8348944765
K000000248,Herz- und Gefäßzentrum Bad Bevensen,10.6035,53.0855,Römstedter Str. 25,29549,Bad Bevensen,Niedersachsen,"Herz- und Gefäßzentrum Bad Bevensen, Römstedter Straße 25, 29549 Bad Bevensen",Niedersachsen,4361439.337757092,3330956.843901849,10000,9.601318574173796,1,4356439.337757092,4366439.337757092,3325956.843901849,3335956.843901849
K000000249,Orthoklinik Lüneburg GmbH,10.394,53.2328,Ginsterweg 5-7,21335,Lüneburg,Niedersachsen,"Orthoklinik Lüneburg GmbH, Ginsterweg 5-7, 21335 Lüneburg",Niedersachsen,4347311.554237219,3347251.9369868236,10000,30.38094042330737,5,4342311.554237219,4352311.554237219,3342251.9369868236,3352251.9369868236
K000000250,MediClin Klinikum Soltau,9.857,52.9941,Oeninger Weg 59,29614,Soltau,Niedersachsen,"MediClin Klinikum Soltau, Oeninger Weg 59, 29614 Soltau",Niedersachsen,4311397.532706529,3320627.2574985293,10000,44.140457048199316,6,4306397.532706529,4316397.532706529,3315627.2574985293,3325627.2574985293
K000000252,Klinik Dr. med. T. Witwity GmbH,9.4737,53.5981,Neubourgstr. 4,21682,Stade,Niedersachsen,"Klinik Dr. med. T. Witwity GmbH, Neubourgstr. 4, 21682 Stade",Niedersachsen,4286151.810307612,3387958.5355672906,10000,16.952964608196066,3,4281151.810307612,4291151.810307612,3382958.5355672906,3392958.5355672906
K000000253,Klinik Dr. Hancken GmbH,9.4727,53.5951,Harsefelder Str. 8,21680,Stade,Niedersachsen,"Klinik Dr. Hancken GmbH, Harsefelder Str. 8, 21680 Stade",Niedersachsen,4286083.139328069,3387625.1744584776,10000,17.290645865698053,3,4281083.139328069,4291083.139328069,3382625.1744584776,3392625.1744584776
K000000254,Helios Klinikum Uelzen GmbH,10.5321,52.9718,Hagenskamp 34,29525,Uelzen,Niedersachsen,"Helios Klinikum Uelzen GmbH, Hagenskamp 34, 29525 Uelzen",Niedersachsen,4356748.5642343145,3318267.1769024767,10000,31.84077855365,5,4351748.5642343145,4361748.5642343145,3313267.1769024767,3323267.1769024767
K000000255,HELIOS Seehospital Sahlenburg,8.6003,53.8653,Nordheimstr. 201,27476,Cuxhaven,Niedersachsen,"HELIOS Seehospital Sahlenburg, Nordheimstraße 201, 27476 Cuxhaven",Niedersachsen,4228908.723313798,3418456.869458471,10000,0.039302807106937475,1,4223908.723313798,4233908.723313798,3413456.869458471,3423456.869458471
K000000256,MediClin Seepark Klinik,10.6832,52.8241,Sebastian-Kneipp-Str. 1,29389,Bad Bodenteich,Niedersachsen,"MediClin Seepark Klinik, Sebastian-Kneipp-Str. 1, 29389 Bad Bodenteich",Niedersachsen,4367055.475363354,3301916.7917359704,10000,10.523992937064298,1,4362055.475363354,4372055.475363354,3296916.7917359704,3306916.7917359704
K000000257,Niels-Stensen-Kliniken Marienhospital Ankum-Bersenbrück GmbH,7.8741,52.5409,Lingener Str. 11,49577,Ankum,Niedersachsen,"Niels-Stensen-Kliniken Marienhospital Ankum-Bersenbrück GmbH, Lingener Straße 11, 49577 Ankum",Niedersachsen,4176784.3067895933,3272293.832608234,10000,9.545962841124828,4,4171784.3067895933,4181784.3067895933,3267293.832608234,3277293.832608234
K000000258,"Ubbo-Emmius-Klinik gGmbH, Ostfriesisches Krankenhaus, Klinik Aurich",7.4971,53.4676,Wallinghausener Str. 8 - 12,26603,Aurich,Niedersachsen,"Ubbo-Emmius-Klinik gGmbH, Ostfriesisches Krankenhaus, Klinik Aurich, Wallinghausener Str. 8 - 12, 26603 Aurich",Niedersachsen,4154803.3175350893,3376177.64598863,10000,28.129760419555843,4,4149803.3175350893,4159803.3175350893,3371177.64598863,3381177.64598863
K000000259,Schüchtermann-Klinik,8.1626,52.1113,Ulmenallee 5-11,49214,Bad Rothenfelde,Niedersachsen,"Schüchtermann-Klinik, Ulmenallee 5-11, 49214 Bad Rothenfelde",Niedersachsen,4195139.302259437,3223971.1251030387,10000,10.281312922016113,4,4190139.302259437,4200139.302259437,3218971.1251030387,3228971.1251030387
K000000260,Augenklinik Dr. Georg,8.1588,52.1103,Am Kurpark 13-15,49214,Bad Rothenfelde,Niedersachsen,"Augenklinik Dr. Georg, Am Kurpark 13-15, 49214 Bad Rothenfelde",Niedersachsen,4194876.25049753,3223866.456758892,10000,9.958631995637935,4,4189876.25049753,4199876.25049753,3218866.456758892,3228866.456758892
K000000261,Karl-Jaspers-Klinik,8.1401,53.1697,Hermann-Ehlers-Str. 7,26160,Bad Zwischenahn,Niedersachsen,"Karl-Jaspers-Klinik, Hermann-Ehlers-Straße 7, 26160 Bad Zwischenahn",Niedersachsen,4196628.146377013,3341751.8306252356,10000,18.551211460485447,2,4191628.146377013,4201628.146377013,3336751.8306252356,3346751.8306252356
K000000262,Paulinenkrankenhaus Bad Bentheim,7.1501,52.2995,Paulinenweg 1,48455,Bad Bentheim,Niedersachsen,"Paulinenkrankenhaus Bad Bentheim, Paulinenweg 1, 48455 Bad Bentheim",Niedersachsen,4126639.03442753,3247129.328830471,10000,27.172652448903392,4,4121639.03442753,4131639.03442753,3242129.328830471,3252129.328830471
K000000263,St. Bernhard-Hospital gemeinnützige GmbH,8.4823,53.3243,Claußenstr. 3,26919,Brake,Niedersachsen,"St. Bernhard-Hospital gemeinnützige GmbH, Claußenstraße 3, 26919 Brake",Niedersachsen,4219870.213527011,3358420.4385435483,10000,17.00368006165143,5,4214870.213527011,4224870.213527011,3353420.4385435483,3363420.4385435483
K000000264,Niels-Stensen-Kliniken Bramsche GmbH,7.9853,52.409,Hasestr. 16,49565,Bramsche,Niedersachsen,"Niels-Stensen-Kliniken Bramsche GmbH, Hasestraße 16, 49565 Bramsche",Niedersachsen,4183917.2525522276,3257406.8801892013,10000,12.700568869178085,4,4178917.2525522276,4188917.2525522276,3252406.8801892013,3262406.8801892013
K000000265,Krankenhaus St. Elisabeth gGmbH,8.1945,52.5216,Lindenstr. 3-7,49401,Damme,Niedersachsen,"Krankenhaus St. Elisabeth gGmbH, Lindenstraße 3-7, 49401 Damme",Niedersachsen,4198460.242246737,3269559.5426217387,10000,12.061888020283714,3,4193460.242246737,4203460.242246737,3264559.5426217387,3274559.5426217387
K000000266,Stadtkrankenhaus Delmenhorst GmbH,8.5925,53.0445,Wildeshauser Str. 92,27753,Delmenhorst,Niedersachsen,"Stadtkrankenhaus Delmenhorst GmbH, Wildeshauser Straße 92, 27753 Delmenhorst",Niedersachsen,4226602.591984616,3327140.9698858154,10000,32.694659496335014,6,4221602.591984616,4231602.591984616,3322140.9698858154,3332140.9698858154
K000000270,Klinikum Emden - Hans-Susemihl-Krankenhaus gGmbH,7.2136,53.3739,Bolardusstr. 20,26721,Emden,Niedersachsen,"Klinikum Emden - Hans-Susemihl-Krankenhaus gGmbH, Bolardusstraße 20, 26721 Emden",Niedersachsen,4135583.626309983,3366443.5615323195,10000,22.62938341836812,5,4130583.626309983,4140583.626309983,3361443.5615323195,3371443.5615323195
K000000272,St.-Marien-Hospital gGmbH,7.8543,53.0223,St.-Marien-Str. 1,26169,Friesoythe,Niedersachsen,"St.-Marien-Hospital gGmbH, St.-Marien-Str. 1, 26169 Friesoythe",Niedersachsen,4177033.62113459,3325882.431055978,10000,10.536775185967018,2,4172033.62113459,4182033.62113459,3320882.431055978,3330882.431055978
K000000273,Klinik für Kinder- und Jugendpsychiatrie Wichernstift gGmbH,8.5757,53.0478,Oldenburger Str. 333,27777,Ganderkesee,Niedersachsen,"Klinik für Kinder- und Jugendpsychiatrie Wichernstift gGmbH, Oldenburger Straße 333, 27777 Ganderkesee",Niedersachsen,4225483.289907545,3327530.098556796,10000,29.33282036163675,6,4220483.289907545,4230483.289907545,3322530.098556796,3332530.098556796
K000000274,Klinikum Osnabrücker Land GmbH,8.0415,52.2048,Hospitalweg 1,49124,Georgsmarienhütte,Niedersachsen,"Klinikum Osnabrücker Land GmbH, Hospitalweg 1, 49124 Georgsmarienhütte",Niedersachsen,4187126.698036555,3234587.7426015646,10000,20.912318071878275,4,4182126.698036555,4192126.698036555,3229587.7426015646,3239587.7426015646
K000000275,Niels-Stensen-Kliniken St.-Vinzenz-Hospital Haselünne GmbH,7.4837,52.6711,Hammer Str. 9,49740,Haselünne,Niedersachsen,"Niels-Stensen-Kliniken St.-Vinzenz-Hospital Haselünne GmbH, Hammer Str. 9, 49740 Haselünne",Niedersachsen,4150815.852907544,3287619.448256395,10000,11.553892300132365,2,4145815.852907544,4155815.852907544,3282619.448256395,3292619.448256395
K000000276,Klinikum Leer gGmbH,7.4585,53.2359,Augustenstr. 35 - 37,26789,Leer,Niedersachsen,"Klinikum Leer gGmbH, Augustenstraße 35 - 37, 26789 Leer",Niedersachsen,4151328.538438784,3350496.329360666,10000,19.725228882276575,3,4146328.538438784,4156328.538438784,3345496.329360666,3355496.329360666
K000000277,Borromäus Hospital Leer gGmbH,7.4458,53.2287,Kirchstr. 61 - 67,26789,Leer,Niedersachsen,"Borromäus Hospital Leer gGmbH, Kirchstraße 61 - 67, 26789 Leer",Niedersachsen,4150452.6119243205,3349725.2918403004,10000,17.829603345175617,3,4145452.6119243205,4155452.6119243205,3344725.2918403004,3354725.2918403004
K000000278,Bonifatius Hospital Lingen,7.3157,52.5251,Wilhelmstr. 13,49808,Lingen,Niedersachsen,"Bonifatius Hospital Lingen, Wilhelmstraße 13, 49808 Lingen",Niedersachsen,4138856.484072244,3271788.893217115,10000,16.85524935460188,2,4133856.484072244,4143856.484072244,3266788.893217115,3276788.893217115
K000000279,St. Anna Klinik,7.7544,52.7345,St. Annenstr. 9,49624,Löningen,Niedersachsen,"St. Anna Klinik, St. Annenstr. 9, 49624 Löningen",Niedersachsen,4169336.1341171223,3294072.106436294,10000,10.136124471101615,1,4164336.1341171223,4174336.1341171223,3289072.106436294,3299072.106436294
K000000280,St. Franziskus-Hospital Lohne,8.2408,52.6646,Franziskusstr. 6,49393,Lohne,Niedersachsen,"St. Franziskus-Hospital, Franziskusstr. 6, 49393 Lohne",Niedersachsen,4201988.91052383,3285391.038677939,10000,15.324726913894393,2,4196988.91052383,4206988.91052383,3280391.038677939,3290391.038677939
K000000281,Niels-Stensen-Klinikum Christliches Klinikum Melle,8.3356,52.1974,Engelgarten 3,49324,Melle,Niedersachsen,"Niels-Stensen-Klinikum Christliches Klinikum Melle, Engelgarten 3, 49324 Melle",Niedersachsen,4207206.634627241,3233264.572947583,10000,11.223759827683795,1,4202206.634627241,4212206.634627241,3228264.572947583,3238264.572947583
K000000282,Krankenhaus Ludmillenstift,7.2928,52.6888,Ludmillenstr. 4-6,49716,Meppen,Niedersachsen,"Krankenhaus Ludmillenstift, Ludmillenstraße 4-6, 49716 Meppen",Niedersachsen,4137985.20489904,3290051.571309071,10000,20.983566776334214,3,4132985.20489904,4142985.20489904,3285051.571309071,3295051.571309071
K000000283,Clemens-August-Klinik,8.105,52.5118,Wahlde 11,49434,Neuenkirchen-Vörden,Niedersachsen,"Clemens-August-Klinik, Wahlde 11, 49434 Neuenkirchen-Vörden",Niedersachsen,4192358.85995751,3268623.8283219277,10000,10.735467605965535,3,4187358.85995751,4197358.859957511,3263623.8283219277,3273623.8283219277
K000000284,"Ubbo-Emmius-Klinik gGmbH, Ostfriesisches Krankenhaus, Klinik Norden",7.2177,53.6009,Osterstr. 110,26506,Norden,Niedersachsen,"Ubbo-Emmius-Klinik gGmbH, Ostfriesisches Krankenhaus, Klinik Norden, Osterstr. 110, 26506 Norden",Niedersachsen,4136836.726681793,3391678.2404468576,10000,15.613199733064388,4,4131836.726681793,4141836.726681793,3386678.2404468576,3396678.2404468576
K000000285,Krankenhaus Norderney,7.1723,53.7162,Lippestr. 9-11,26548,Norderney,Niedersachsen,"Krankenhaus Norderney, Lippestr. 9-11, 26548 Norderney",Niedersachsen,4134340.3993145544,3404617.0483455355,10000,10.916836208345135,11,4129340.3993145544,4139340.3993145544,3399617.0483455355,3409617.0483455355
K000000286,Helios Klinik Wesermarsch,8.4652,53.4837,Mildred-Scheel-Str. 1,26954,Nordenham,Niedersachsen,"Helios Klinik Wesermarsch, Mildred-Scheel-Str. 1, 26954 Nordenham",Niedersachsen,4219110.474171872,3376179.4135065493,10000,18.139079900927428,3,4214110.474171872,4224110.474171872,3371179.4135065493,3381179.4135065493
K000000287,Euregio-Klinik Hannoverstraße GmbH,7.0658,52.4427,Albert-Schweitzer-Str. 10,48527,Nordhorn,Niedersachsen,"Euregio-Klinik Hannoverstraße GmbH, Albert-Schweitzer-Straße 10, 48527 Nordhorn",Niedersachsen,4121538.201996533,3263280.9563133493,10000,12.14151573013935,2,4116538.201996533,4126538.201996533,3258280.9563133493,3268280.9563133493
K000000288,Euregio-Klinik Albert-Schweitzer-Straße GmbH,7.0658,52.4427,Albert-Schweitzer-Str. 10,48527,Nordhorn,Niedersachsen,"Euregio-Klinik Albert-Schweitzer-Straße GmbH, Albert-Schweitzer-Str. 10, 48527 Nordhorn",Niedersachsen,4121538.201996533,3263280.9563133493,10000,12.14151573013935,2,4116538.201996533,4126538.201996533,3258280.9563133493,3268280.9563133493
K000000289,Klinikum Oldenburg AöR,8.218,53.1117,Rahel-Straus-Str. 10,26133,Oldenburg,Niedersachsen,"Klinikum Oldenburg AöR, Rahel-Straus-Str. 10, 26133 Oldenburg",Niedersachsen,4201676.201323934,3335168.5491448073,10000,24.73165742645008,7,4196676.201323934,4206676.201323934,3330168.5491448073,3340168.5491448073
K000000290,"Pius-Hospital Oldenburg, Medizinischer Campus Universität Oldenburg",8.211,53.144,Georgstr. 12,26121,Oldenburg,Niedersachsen,"Pius-Hospital Oldenburg, Medizinischer Campus Universität Oldenburg, Georgstraße 12, 26121 Oldenburg",Niedersachsen,4201296.9689288335,3338773.509197226,10000,29.381843362898504,9,4196296.9689288335,4206296.9689288335,3333773.509197226,3343773.509197226
K000000291,Evangelisches Krankenhaus Oldenburg,8.2053,53.1422,Steinweg 13 - 17,26122,Oldenburg,Niedersachsen,"Evangelisches Krankenhaus Oldenburg, Steinweg 13 - 17, 26122 Oldenburg",Niedersachsen,4200910.67077105,3338582.6682339287,10000,29.19112544878742,9,4195910.67077105,4205910.67077105,3333582.6682339287,3343582.6682339287
K000000292,Paracelsus-Klinik Osnabrück,8.0103,52.289,Am Natruper Holz 69,49076,Osnabrück,Niedersachsen,"Paracelsus-Klinik Osnabrück, Am Natruper Holz 69, 49076 Osnabrück",Niedersachsen,4185251.42482457,3244011.60926825,10000,28.026219385762772,7,4180251.42482457,4190251.42482457,3239011.60926825,3249011.60926825
K000000293,AMEOS Klinikum Osnabrück,8.0523,52.2881,Knollstr. 31,49088,Osnabrück,Niedersachsen,"AMEOS Klinikum Osnabrück, Knollstraße 31, 49088 Osnabrück",Niedersachsen,4188113.4151356686,3243834.0251495726,10000,28.38780504956134,7,4183113.4151356686,4193113.4151356686,3238834.0251495726,3248834.0251495726
K000000294,Kinderhospital Osnabrück,8.0643,52.2519,Iburger Str. 187,49082,Osnabrück,Niedersachsen,"Kinderhospital Osnabrück, Iburger Straße 187, 49082 Osnabrück",Niedersachsen,4188824.4872949673,3239785.3723235093,10000,29.856109316162684,7,4183824.4872949673,4193824.4872949673,3234785.3723235093,3244785.3723235093
K000000295,Niels-Stensen-Kliniken Marienhospital Osnabrück,8.0538,52.2703,Bischofsstr. 1,49074,Osnabrück,Niedersachsen,"Niels-Stensen-Kliniken Marienhospital Osnabrück, Bischofsstraße 1, 49074 Osnabrück",Niedersachsen,4188162.6101659685,3241851.253682331,10000,31.285067953375023,8,4183162.6101659685,4193162.6101659685,3236851.253682331,3246851.253682331
K000000296,Klinikum Osnabrück GmbH,8.0024,52.2768,Am Finkenhügel 1,49076,Osnabrück,Niedersachsen,"Klinikum Osnabrück GmbH, Am Finkenhügel 1, 49076 Osnabrück",Niedersachsen,4184675.2288064193,3242669.2843007343,10000,33.28716063317705,10,4179675.2288064193,4189675.2288064193,3237669.2843007343,3247669.2843007343
K000000297,Niels-Stensen-Kliniken Krankenhaus St. Raphael Ostercappeln,8.2288,52.3453,Bremer Str. 31,49179,Ostercappeln,Niedersachsen,"Niels-Stensen-Kliniken Krankenhaus St. Raphael Ostercappeln, Bremer Straße 31, 49179 Ostercappeln",Niedersachsen,4200308.082327292,3249889.6966121276,10000,12.251447892107164,2,4195308.082327292,4205308.082327292,3244889.6966121276,3254889.6966121276
K000000298,Christliches Krankenhaus Quakenbrück GmbH,7.9384,52.6681,Danziger Str. 2,49610,Quakenbrück,Niedersachsen,"Christliches Krankenhaus Quakenbrück GmbH, Danziger Straße 2, 49610 Quakenbrück",Niedersachsen,4181548.3286178163,3286317.753019011,10000,24.469847111710152,4,4176548.3286178163,4186548.3286178163,3281317.753019011,3291317.753019011
K000000299,Nordwest-Krankenhaus Sanderbusch gGmbH,8.0068,53.5076,Am Gut Sanderbusch 1,26452,Sande,Niedersachsen,"Nordwest-Krankenhaus Sanderbusch gGmbH, Am Gut Sanderbusch 1, 26452 Sande",Niedersachsen,4188760.868690558,3379578.3783774767,10000,17.28203897163196,2,4183760.868690558,4193760.868690558,3374578.3783774767,3384578.3783774767
K000000300,Hümmling Hospital Sögel gGmbH,7.5191,52.8432,Mühlenstr. 17,49751,Sögel,Niedersachsen,"Hümmling Hospital Sögel gGmbH, Mühlenstraße 17, 49751 Sögel",Niedersachsen,4153866.848016118,3306678.527049548,10000,11.054727849196421,3,4148866.848016118,4158866.848016118,3301678.527049548,3311678.527049548
K000000301,Niels Stensen Kliniken Elisabeth-Kranknehaus Thuine,7.4899,52.4978,Klosterstr. 4,49832,Thuine,Niedersachsen,"Niels Stensen Kliniken Elisabeth-Kranknehaus Thuine, Klosterstraße 4, 49832 Thuine",Niedersachsen,4150565.9121818766,3268330.6753559234,10000,3.98807670075913,1,4145565.9121818766,4155565.9121818766,3263330.6753559234,3273330.6753559234
K000000302,St. Johannes-Hospital gGmbH,8.1396,53.3925,Bleichenpfad 9,26316,Varel,Niedersachsen,"St. Johannes-Hospital gGmbH, Bleichenpfad 9, 26316 Varel",Niedersachsen,4197236.870599825,3366539.2685046815,10000,27.690736266951067,8,4192236.870599825,4202236.870599825,3361539.2685046815,3371539.2685046815
K000000303,St. Marienhospital Vechta,8.2867,52.7257,Marienstr. 6-8,49377,Vechta,Niedersachsen,"St. Marienhospital Vechta, Marienstraße 6-8, 49377 Vechta",Niedersachsen,4205254.610767115,3292114.3176082415,10000,23.046457763807403,4,4200254.610767115,4210254.610767115,3287114.3176082415,3297114.3176082415
K000000304,Krankenhaus Rheiderland,7.3524,53.168,Neue Str. 22,26826,Weener,Niedersachsen,"Krankenhaus Rheiderland, Neue Straße 22, 26826 Weener",Niedersachsen,4143970.571406216,3343197.8526050025,10000,12.135797505184575,2,4138970.571406216,4148970.571406216,3338197.8526050025,3348197.8526050025
K000000305,Krankenhaus Johanneum,8.4317,52.8939,Feldstr. 1,27793,Wildeshausen,Niedersachsen,"Krankenhaus Johanneum, Feldstrasse 1, 27793 Wildeshausen",Niedersachsen,4215455.242744568,3310606.525252046,10000,10.733876393088194,1,4210455.242744568,4220455.242744568,3305606.525252046,3315606.525252046
K000000307,Klinikum Wilhelmshaven gGmbH,8.0825,53.5454,Friedrich-Paffrath-Str. 100,26389,Wilhelmshaven,Niedersachsen,"Klinikum Wilhelmshaven gGmbH, Friedrich-Paffrath-Straße 100, 26389 Wilhelmshaven",Niedersachsen,4193894.3824486663,3383648.182501804,10000,8.11645873788458,2,4188894.3824486663,4198894.382448666,3378648.182501804,3388648.182501804
K000000308,Krankenhaus Wittmund gGmbH,7.7885,53.5719,Dohuser Weg 10,26409,Wittmund,Niedersachsen,"Krankenhaus Wittmund gGmbH, Dohuser Weg 10, 26409 Wittmund",Niedersachsen,4174503.547534134,3387150.8863602905,10000,17.394243341669284,2,4169503.547534134,4179503.547534134,3382150.8863602905,3392150.8863602905
K000000309,Fachklinik Bad Bentheim,7.1622,52.3171,Am Bade 1,48455,Bad Bentheim,Niedersachsen,"Fachklinik Bad Bentheim, Am Bade 1, 48455 Bad Bentheim",Niedersachsen,4127540.3588908417,3249054.2224543663,10000,25.442605485007196,4,4122540.3588908417,4132540.3588908417,3244054.2224543663,3254054.2224543663
K000000310,St. Josefs-Hospital Cloppenburg,8.04,52.8477,Krankenhausstr. 13,49661,Cloppenburg,Niedersachsen,"St. Josefs-Hospital Cloppenburg, Krankenhausstraße 13, 49661 Cloppenburg",Niedersachsen,4188961.257030042,3306106.9818586893,10000,26.162894292670753,4,4183961.257030042,4193961.257030042,3301106.9818586893,3311106.9818586893
K000000311,Niels-Stensen-Kliniken Franziskus-Hospital Harderberg,8.0737,52.2376,Alte Rothenfelder Str. 23,49124,Georgsmarienhütte,Niedersachsen,"Niels-Stensen-Kliniken Franziskus-Hospital Harderberg, Alte Rothenfelder Straße 23, 49124 Georgsmarienhütte",Niedersachsen,4189423.9524672218,3238177.6483796607,10000,28.619357295733664,7,4184423.9524672218,4194423.952467222,3233177.6483796607,3243177.6483796607
K000000312,Ammerland-Klinik Westerstede,7.919,53.2587,Lange Str. 38,26655,Westerstede,Niedersachsen,"Ammerland-Klinik Westerstede, Lange Straße 38, 26655 Westerstede",Niedersachsen,4182134.3212092416,3352053.6538081705,10000,11.556551910718651,3,4177134.3212092416,4187134.3212092416,3347053.6538081705,3357053.6538081705
K000000313,Johann-Wilhelm-Ritter-Klinik Zentrum für dermatologische Phototherapie GmbH & Co. KG,8.1527,52.1134,Parkstr. 35-37,49214,Bad Rothenfelde,Niedersachsen,"Johann-Wilhelm-Ritter-Klinik Zentrum für dermatologische Phototherapie GmbH & Co. KG, Parkstr. 35-37, 49214 Bad Rothenfelde",Niedersachsen,4194467.264287367,3224221.8734160936,10000,9.507830793667026,3,4189467.2642873675,4199467.264287367,3219221.8734160936,3229221.8734160936
K000000314,MediClin Hedon Klinik,7.3588,52.5119,Hedonallee 1,49811,Lingen (Ems),Niedersachsen,"MediClin Hedon Klinik, Hedonallee 1, 49811 Lingen (Ems)",Niedersachsen,4141725.9547225386,3270213.856426232,10000,15.115900902466937,2,4136725.9547225386,4146725.9547225386,3265213.856426232,3275213.856426232
K000000315,Marien Hospital Papenburg Aschendorf,7.3941,53.0755,Hauptkanal rechts 74-75,26871,Papenburg,Niedersachsen,"Marien Hospital Papenburg Aschendorf, Hauptkanal rechts 74-75, 26871 Papenburg",Niedersachsen,4146384.6066907737,3332809.1890027197,10000,12.133094966606826,2,4141384.6066907737,4151384.6066907737,3327809.1890027197,3337809.1890027197
K000000316,Westerstede,7.919,53.2587,Lange Str. 38,26655,Westerstede,Niedersachsen,"Westerstede, Lange Straße 38, 26655 Westerstede",Niedersachsen,4182134.3212092416,3352053.6538081705,10000,11.556551910718651,3,4177134.3212092416,4187134.3212092416,3347053.6538081705,3357053.6538081705
K000000317,Christliches Kinderhospital Osnabrück GmbH,8.0522,52.2699,Johannisfreiheit 1,49074,Osnabrück,Niedersachsen,"Christliches Kinderhospital Osnabrück GmbH, Johannisfreiheit 1, 49074 Osnabrück",Niedersachsen,4188052.238148297,3241809.678331698,10000,31.862562178390665,9,4183052.238148297,4193052.238148297,3236809.678331698,3246809.678331698
K000000318,Inselkrankenhaus Borkum,6.6712,53.5857,Gartenstr. 20,26757,Borkum,Niedersachsen,"Inselkrankenhaus Borkum, Gartenstraße 20, 26757 Borkum",Niedersachsen,4100611.7815453717,3391512.9889429323,10000,13.550131586823703,5,4095611.7815453717,4105611.7815453717,3386512.9889429323,3396512.9889429323
K000000319,STENUM Ortho GmbH,8.5553,53.0796,Heilstättenweg 1,27777,Ganderkesee,Niedersachsen,"STENUM Ortho GmbH, Heilstättenweg 1, 27777 Ganderkesee",Niedersachsen,4224186.446309893,3331095.23409276,10000,20.907312826721505,4,4219186.446309893,4229186.446309893,3326095.23409276,3336095.23409276
K000000320,Klinikum Bremen-Mitte,8.8365,53.0743,St.-Jürgen-Str. 1,28205,Bremen,Bremen,"Klinikum Bremen-Mitte, St.-Jürgen-Straße 1, 28205 Bremen",Bremen,4243018.849670724,3330167.130919364,10000,46.127910637847656,12,4238018.849670724,4248018.849670724,3325167.130919364,3335167.130919364
K000000321,Klinikum Bremen-Ost,8.9402,53.0643,Züricher Str. 40,28325,Bremen,Bremen,"Klinikum Bremen-Ost, Züricher Straße 40, 28325 Bremen",Bremen,4249952.141379786,3328948.0438532205,10000,43.22162006678692,7,4244952.141379786,4254952.141379786,3323948.0438532205,3333948.0438532205
K000000322,Klinikum Bremen-Nord,8.5937,53.1842,Hammersbecker Str. 228,28755,Bremen,Bremen,"Klinikum Bremen-Nord, Hammersbecker Straße 228, 28755 Bremen",Bremen,4226986.914862663,3342682.831570326,10000,16.462435005230116,3,4221986.914862663,4231986.914862663,3337682.831570326,3347682.831570326
K000000323,Klinikum Links der Weser,8.8187,53.0356,Senator-Weßling-Str. 1,28277,Bremen,Bremen,"Klinikum Links der Weser, Senator-Weßling-Str. 1, 28277 Bremen",Bremen,4241755.298188355,3325880.3290559216,10000,33.02919381246841,9,4236755.298188355,4246755.298188355,3320880.3290559216,3330880.3290559216
K000000324,DIAKO Ev. Diakonie-Krankenhaus gemeinnützige GmbH,8.7454,53.1258,Gröpelinger Heerstr. 406,28239,Bremen,Bremen,"DIAKO Ev. Diakonie-Krankenhaus gemeinnützige GmbH, Gröpelinger Heerstr. 406, 28239 Bremen",Bremen,4237013.658896045,3335998.9977402617,10000,24.15150898076569,10,4232013.658896045,4242013.658896045,3330998.9977402617,3340998.9977402617
K000000325,Krankenhaus St. Joseph-Stift Bremen GmbH,8.8359,53.0826,Schwachhauser Heerstr. 54,28209,Bremen,Bremen,"Krankenhaus St. Joseph-Stift Bremen GmbH, Schwachhauser Heerstraße 54, 28209 Bremen",Bremen,4242993.578344119,3331091.3018217604,10000,44.58834080028271,11,4237993.578344119,4247993.578344119,3326091.3018217604,3336091.3018217604
K000000326,Rotes Kreuz Krankenhaus Bremen gGmbH,8.8033,53.0693,St.-Pauli-Deich 24,28199,Bremen,Bremen,"Rotes Kreuz Krankenhaus Bremen gGmbH, St.-Pauli-Deich 24, 28199 Bremen",Bremen,4240784.6688620215,3329646.949825446,10000,38.93445349652334,11,4235784.6688620215,4245784.6688620215,3324646.949825446,3334646.949825446
K000000327,Roland Klinik gGmbH,8.8239,53.0566,Niedersachsendamm 72-74,28201,Bremen,Bremen,"Roland Klinik gGmbH, Niedersachsendamm 72-74, 28201 Bremen",Bremen,4242142.265394309,3328211.291312016,10000,40.02240698597098,11,4237142.265394309,4247142.265394309,3323211.291312016,3333211.291312016
K000000328,AMEOS Klinikum Dr. Heines Bremen,8.941,53.0756,Rockwinkeler Landstr. 110,28325,Bremen,Bremen,"AMEOS Klinikum Dr. Heines Bremen, Rockwinkeler Landstraße 110, 28325 Bremen",Bremen,4250024.268275391,3330204.616052911,10000,38.258950890549016,7,4245024.268275391,4255024.268275391,3325204.616052911,3335204.616052911
K000000329,Paracelsus-Klinik Bremen,8.8774,53.0796,In der Vahr 65,28329,Bremen,Bremen,"Paracelsus-Klinik Bremen, In der Vahr 65, 28329 Bremen",Bremen,4245769.027778482,3330713.7133909715,10000,41.988211047268216,10,4240769.027778482,4250769.027778482,3325713.7133909715,3335713.7133909715
