hospital_id,KName,lon,lat,Str,PLZ,Ort,Bundesland,Adresse,KV,x_center_m,y_center_m,cell_size_m,rail_length_in_cell_km_1885,rail_segments_hitting_cell_1885,x_min,x_max,y_min,y_max
K000000002,Diakonissenkrankenhaus Flensburg,9.426,54.7904,Knuthstr. 1,24939,Flensburg,Schleswig-Holstein,"Diakonissenkrankenhaus Flensburg, Knuthstr. 1, 24939 Flensburg",Schleswig-Holstein,4284063.680874565,3520661.6586438394,15000,49.72524748835257,10,4276563.680874565,4291563.680874565,3513161.6586438394,3528161.6586438394
K000000003,Malteser Krankenhaus St. Franziskus-Hospital,9.4216,54.793,Waldstr. 17,24939,Flensburg,Schleswig-Holstein,"Malteser Krankenhaus St. Franziskus-Hospital, Waldstraße 17, 24939 Flensburg",Schleswig-Holstein,4283782.918033585,3520953.2399278237,15000,48.74462731931838,10,4276282.918033585,4291282.918033585,3513453.2399278237,3528453.2399278237
K000000004,Städtisches Krankenhaus Kiel GmbH,10.1162,54.3224,Chemnitzstr. 33,24116,Kiel,Schleswig-Holstein,"Städtisches Krankenhaus Kiel GmbH, Chemnitzstr. 33, 24116 Kiel",Schleswig-Holstein,4328562.788163073,3468440.8663023724,15000,52.41807867847839,10,4321062.788163073,4336062.788163073,3460940.8663023724,3475940.8663023724
K000000005,Sankt Elisabeth Krankenhaus Kiel,10.1271,54.3168,Königsweg 8,24103,Kiel,Schleswig-Holstein,"Sankt Elisabeth Krankenhaus Kiel, Königsweg 8, 24103 Kiel",Schleswig-Holstein,4329273.319929826,3467818.8743014503,15000,53.26324831427834,10,4321773.319929826,4336773.319929826,3460318.8743014503,3475318.8743014503
K000000006,Park-Klinik GmbH,10.1256,54.3267,Goethestr. 11,24116,Kiel,Schleswig-Holstein,"Park-Klinik GmbH, Goethestrasse 11, 24116 Kiel",Schleswig-Holstein,4329173.733636578,3468920.406320483,15000,53.7665570286455,10,4321673.733636578,4336673.733636578,3461420.406320483,3476420.406320483
K000000007,Lubinus Clinicum,10.1169,54.3537,Steenbeker Weg 25,24106,Kiel,Schleswig-Holstein,"Lubinus Clinicum, Steenbeker Weg 25, 24106 Kiel",Schleswig-Holstein,4328602.617124513,3471924.0993981217,15000,42.00042059280015,10,4321102.617124513,4336102.617124513,3464424.0993981217,3479424.0993981217
K000000008,Klinik Flechsig GmbH,10.1162,54.3224,Chemnitzstr. 33,24116,Kiel,Schleswig-Holstein,"Klinik Flechsig GmbH, Chemnitzstraße 33, 24116 Kiel",Schleswig-Holstein,4328562.788163073,3468440.8663023724,15000,52.41807867847839,10,4321062.788163073,4336062.788163073,3460940.8663023724,3475940.8663023724
K000000009,Kath. Marien-Krankenhaus Lübeck gemeinnützige GmbH,10.6851,53.8623,Parade 3,23552,Lübeck,Schleswig-Holstein,"Kath. Marien-Krankenhaus Lübeck gemeinnützige GmbH, Parade 3, 23552 Lübeck",Schleswig-Holstein,4366080.861902422,3417446.3719349066,15000,57.32019287231475,14,4358580.861902422,4373580.861902422,3409946.3719349066,3424946.3719349066
K000000010,DRK-Fachklinik Hahnknüll gGmbH,9.9468,54.0984,Hahnknüll 58,24537,Neumünster,Schleswig-Holstein,"DRK-Fachklinik Hahnknüll gGmbH, Hahnknüll 58, 24537 Neumünster",Schleswig-Holstein,4317518.879449323,3443508.560190071,15000,56.92181164623587,6,4310018.879449323,4325018.879449323,3436008.560190071,3451008.560190071
K000000012,Johanniter-Krankenhaus Geesthacht GmbH,10.3854,53.4316,Am Runden Berge 3,21502,Geesthacht,Schleswig-Holstein,"Johanniter-Krankenhaus Geesthacht GmbH, Am Runden Berge 3, 21502 Geesthacht",Schleswig-Holstein,4346618.478579923,3369371.4793781755,15000,18.465682384059743,4,4339118.478579923,4354118.478579923,3361871.4793781755,3376871.4793781755
K000000013,Johanniter Tagesklinik Schwarzenbek,10.4787,53.5058,Körnerplatz 6,21493,Schwarzenbek,Schleswig-Holstein,"Johanniter Tagesklinik Schwarzenbek, Körnerplatz 6, 21493 Schwarzenbek",Schleswig-Holstein,4352765.125847484,3377665.4490056788,15000,24.303760250160778,3,4345265.125847484,4360265.125847484,3370165.4490056788,3385165.4490056788
K000000014,Johanniter Tagesklnik Mölln,10.6864,53.6262,Wasserkrüger Weg 7,23879,Mölln,Schleswig-Holstein,"Johanniter Tagesklnik Mölln, Wasserkrüger Weg 7, 23879 Mölln",Schleswig-Holstein,4366418.669865862,3391174.1379039227,15000,34.84674800784037,3,4358918.669865862,4373918.669865862,3383674.1379039227,3398674.1379039227
K000000015,DRK-Krankenhaus Mölln-Ratzeburg gGmbH,10.7798,53.6893,Röpersberg 2,23909,Ratzeburg,Schleswig-Holstein,"DRK-Krankenhaus Mölln-Ratzeburg gGmbH, Röpersberg 2, 23909 Ratzeburg",Schleswig-Holstein,4372522.103034477,3398258.273351076,15000,34.37065372821663,4,4365022.103034477,4380022.103034477,3390758.273351076,3405758.273351076
K000000016,"Klinikum Nordfriesland gGmbH, Klinik Husum",9.0507,54.4824,Erichsenweg 16,25813,Husum,Schleswig-Holstein,"Klinikum Nordfriesland gGmbH, Klinik Husum, Erichsenweg 16, 25813 Husum",Schleswig-Holstein,4259455.570677312,3486644.221835525,15000,46.51605828515109,9,4251955.570677312,4266955.570677312,3479144.221835525,3494144.221835525
K000000017,"Klinikum Nordfriesland gGmbH, Klinik Niebüll",8.8448,54.7928,Gather Landstr. 75,25899,Niebüll,Schleswig-Holstein,"Klinikum Nordfriesland gGmbH, Klinik Niebüll, Gather Landstraße 75, 25899 Niebüll",Schleswig-Holstein,4246671.187045708,3521376.535804889,15000,44.09663939475087,5,4239171.187045708,4254171.187045708,3513876.535804889,3528876.535804889
K000000019,"Klinikum Nordfriesland gGmbH, Inselklinik Föhr-Amrum",8.5642,54.6851,Rebbelstieg 24,25938,Wyk,Schleswig-Holstein,"Klinikum Nordfriesland gGmbH, Inselklinik Föhr-Amrum, Rebbelstieg 24, 25938 Wyk",Schleswig-Holstein,4228375.971490202,3509717.5825659707,15000,3.511585766077508,1,4220875.971490202,4235875.971490202,3502217.5825659707,3517217.5825659707
K000000020,DIAKO Nordfriesland gGmbH (Fachklinik für Psychiatrie und Psychosomatik - stat. Angebote),8.985,54.6152,Gammeltoft 8-15,25821,Breklum,Schleswig-Holstein,"DIAKO Nordfriesland gGmbH (Fachklinik für Psychiatrie und Psychosomatik - stat. Angebote), Gammeltoft 8-15, 25821 Breklum",Schleswig-Holstein,4255407.988962222,3501479.108866842,15000,24.12732822648499,3,4247907.988962222,4262907.988962222,3493979.108866842,3508979.108866842
K000000022,DIAKO Nordfriesland gGmbH (Tagesklinik Husum),9.0506,54.4863,Theodor-Schäfer-Str. 1b,25813,Husum,Schleswig-Holstein,"DIAKO Nordfriesland gGmbH (Tagesklinik Husum), Theodor-Schäfer-Str. 1b, 25813 Husum",Schleswig-Holstein,4259454.894726628,3487078.2763443915,15000,46.00227405637291,9,4251954.894726628,4266954.894726628,3479578.2763443915,3494578.2763443915
K000000023,DIAKO Nordfriesland gGmbH (Tagesklinik Niebüll),8.8335,54.7867,Bahnhofstr. 24a,25899,Niebüll,Schleswig-Holstein,"DIAKO Nordfriesland gGmbH (Tagesklinik Niebüll), Bahnhofstraße 24a, 25899 Niebüll",Schleswig-Holstein,4245932.993349411,3520709.490628554,15000,45.0795474864595,5,4238432.993349411,4253432.993349411,3513209.490628554,3528209.490628554
K000000024,Asklepios Nordseeklinik Westerland/Sylt,8.3145,54.9256,Norderstr. 81,25980,Sylt/OT Westerland,Schleswig-Holstein,"Asklepios Nordseeklinik Westerland/Sylt, Norderstr. 81, 25980 Sylt/OT Westerland",Schleswig-Holstein,4212908.597348547,3536822.2175096935,15000,27.399400561323272,8,4205408.597348547,4220408.597348547,3529322.2175096935,3544322.2175096935
K000000025,Klinik Dr. Winkler,9.0559,54.48,Brinckmannstr. 6,25813,Husum,Schleswig-Holstein,"Klinik Dr. Winkler, Brinckmannstraße 6, 25813 Husum",Schleswig-Holstein,4259789.118189608,3486372.7479204214,15000,47.20953533834042,9,4252289.118189608,4267289.118189608,3478872.7479204214,3493872.7479204214
K000000026,Sana Kliniken Ostholstein GmbH - Inselklinik Fehmarn,11.1857,54.4415,Mummendorfer Weg 12,23769,Burg auf Fehmarn,Schleswig-Holstein,"Sana Kliniken Ostholstein GmbH - Inselklinik Fehmarn, Mummendorfer Weg 12, 23769 Burg auf Fehmarn",Schleswig-Holstein,4397945.164825873,3482319.6480205134,15000,19.257730534135586,7,4390445.164825873,4405445.164825873,3474819.6480205134,3489819.6480205134
K000000027,Sana Kliniken Ostholstein GmbH - Klinik Eutin,10.6013,54.1327,Hospitalstr. 22,23701,Eutin,Schleswig-Holstein,"Sana Kliniken Ostholstein GmbH - Klinik Eutin, Hospitalstraße 22, 23701 Eutin",Schleswig-Holstein,4360313.075865087,3447487.6429028427,15000,32.69735200181493,5,4352813.075865087,4367813.075865087,3439987.6429028427,3454987.6429028427
K000000028,Sana Kliniken Ostholstein GmbH - Klinik Oldenburg,10.8799,54.2902,Mühlenkamp 5,23758,Oldenburg i.H.,Schleswig-Holstein,"Sana Kliniken Ostholstein GmbH - Klinik Oldenburg, Mühlenkamp 5, 23758 Oldenburg i.H.",Schleswig-Holstein,4378310.360640407,3465200.0813520155,15000,15.093086011070216,2,4370810.360640407,4385810.360640407,3457700.0813520155,3472700.0813520155
K000000029,AMEOS Klinikum Neustadt,10.7952,54.1057,Wiesenhof 1,23730,Neustadt i. H.,Schleswig-Holstein,"AMEOS Klinikum Neustadt, Wiesenhof 1, 23730 Neustadt i. H.",Schleswig-Holstein,4373023.312473198,3444605.46158392,15000,27.906420469136506,4,4365523.312473198,4380523.312473198,3437105.46158392,3452105.46158392
K000000030,AMEOS Klinikum Lübeck,10.6912,53.85,Kahlhorststr. 33,23562,Lübeck,Schleswig-Holstein,"AMEOS Klinikum Lübeck, Kahlhorststraße 33, 23562 Lübeck",Schleswig-Holstein,4366495.4884577785,3416081.44877224,15000,56.09268949657651,13,4358995.4884577785,4373995.4884577785,3408581.44877224,3423581.44877224
K000000031,AMEOS Klinikum Heiligenhafen,10.9622,54.3741,Friedrich-Ebert-Str. 100,23774,Heiligenhafen,Schleswig-Holstein,"AMEOS Klinikum Heiligenhafen, Friedrich-Ebert-Straße 100, 23774 Heiligenhafen",Schleswig-Holstein,4383544.028417381,3474604.282811055,15000,12.248491730596148,3,4376044.028417381,4391044.028417381,3467104.282811055,3482104.282811055
K000000032,AMEOS Klinikum Kiel,10.1849,54.2966,Tiroler Ring 621-62,24147,Kiel,Schleswig-Holstein,"AMEOS Klinikum Kiel, Tiroler Ring 621-62, 24147 Kiel",Schleswig-Holstein,4333041.534276582,3465579.074019899,15000,55.758439269147594,9,4325541.534276582,4340541.534276582,3458079.074019899,3473079.074019899
K000000033,AMEOS Klinikum Preetz,10.2763,54.2387,Am Krankenhaus 5a,24211,Preetz,Schleswig-Holstein,"AMEOS Klinikum Preetz, Am Krankenhaus 5a, 24211 Preetz",Schleswig-Holstein,4339018.927373697,3459154.7846007836,15000,23.12652434288753,2,4331518.927373697,4346518.927373697,3451654.7846007836,3466654.7846007836
K000000034,AMEOS Tageslinik Oldenburg,10.8805,54.2921,Hoheluftstr. 10,23758,Oldenburg i. H.,Schleswig-Holstein,"AMEOS Klinikum Oldenburg, Hoheluftstraße 10, 23758 Oldenburg i. H.",Schleswig-Holstein,4378346.819519611,3465411.981595113,15000,14.916673312609651,2,4370846.819519611,4385846.819519611,3457911.981595113,3472911.981595113
K000000035,AMEOS Klinikum Oldenburg,10.8799,54.2902,Mühlenkamp 5,23758,Oldenburg i. H.,Schleswig-Holstein,"AMEOS Klinikum Oldenburg, Mühlenkamp 5, 23758 Oldenburg i. H.",Schleswig-Holstein,4378310.360640407,3465200.0813520155,15000,15.093086011070216,2,4370810.360640407,4385810.360640407,3457700.0813520155,3472700.0813520155
K000000036,Sankt Elisabeth Krankenhaus Eutin,10.6108,54.1379,Plöner Str. 42,23701,Eutin,Schleswig-Holstein,"Sankt Elisabeth Krankenhaus Eutin, Plöner Str. 42, 23701 Eutin",Schleswig-Holstein,4360929.206448489,3448071.501822372,15000,32.79724879498949,5,4353429.206448489,4368429.206448489,3440571.501822372,3455571.501822372
K000000037,HELIOS Agnes-Karll Krankenhaus Bad Schwartau [BSC] [BSC],10.694,53.9223,Am Hochkamp 21,23611,Bad Schwartau,Schleswig-Holstein,"HELIOS Agnes-Karll Krankenhaus Bad Schwartau [BSC] [BSC], Am Hochkamp 21, 23611 Bad Schwartau",Schleswig-Holstein,4366601.5620535165,3424128.710189926,15000,46.97623159786624,8,4359101.5620535165,4374101.5620535165,3416628.710189926,3431628.710189926
K000000038,AUGUST-BIER-KLINIK - Neurologie und Rehabilitation,10.5476,54.1648,Diekseepromendade 7-11,23714,Bad Malente-Gremsmühlen,Schleswig-Holstein,"AUGUST-BIER-KLINIK - Neurologie und Rehabilitation, Diekseepromendade 7-11, 23714 Bad Malente-Gremsmühlen",Schleswig-Holstein,4356774.769489458,3451031.8892357326,15000,32.245308207904586,5,4349274.769489458,4364274.769489458,3443531.8892357326,3458531.8892357326
K000000039,"Sana Kliniken Ostholstein GmbH, Klinik Middelburg",10.6836,54.0818,Middelburger Str. 1,23701,Süsel,Schleswig-Holstein,"Sana Kliniken Ostholstein GmbH, Klinik Middelburg, Middelburger Str. 1, 23701 Süsel",Schleswig-Holstein,4365748.04913619,3441871.290815537,15000,42.66227770101569,4,4358248.04913619,4373248.04913619,3434371.290815537,3449371.290815537
K000000040,Regio Kliniken GmbH - Klinikum Pinneberg,9.811,53.6549,Fahltskamp 74,25421,Pinneberg,Schleswig-Holstein,"Regio Kliniken GmbH - Klinikum Pinneberg, Fahltskamp 74, 25421 Pinneberg",Schleswig-Holstein,4308502.219749113,3394169.2342296834,15000,36.37370478151961,3,4301002.219749113,4316002.219749113,3386669.2342296834,3401669.2342296834
K000000041,Regio Kliniken GmbH - Klinikum Elmshorn,9.6839,53.7511,Agnes-Karll-Allee 17,25337,Elmshorn,Schleswig-Holstein,"Regio Kliniken GmbH - Klinikum Elmshorn, Agnes-Karll-Allee 17, 25337 Elmshorn",Schleswig-Holstein,4300144.993611282,3404903.908846411,15000,34.06873905484853,3,4292644.993611282,4307644.993611282,3397403.908846411,3412403.908846411
K000000043,Klinik Preetz,10.2763,54.2387,Am Krankenhaus 5,24306,Plön,Schleswig-Holstein,"Klinik Preetz, Am Krankenhaus 5, 24306 Plön",Schleswig-Holstein,4339018.927373697,3459154.7846007836,15000,23.12652434288753,2,4331518.927373697,4346518.927373697,3451654.7846007836,3466654.7846007836
K000000044,Fachklinik Freudenholm-Ruhleben / Klinische Abteilung,10.4459,54.137,Missionsweg 3,24306,Bösdorf,Schleswig-Holstein,"Fachklinik Freudenholm-Ruhleben / Klinische Abteilung, Missionsweg 3, 24306 Bösdorf",Schleswig-Holstein,4350150.181538862,3447892.641749911,15000,19.41988169594014,5,4342650.181538862,4357650.181538862,3440392.641749911,3455392.641749911
K000000045,imland GmbH - imland Klinik Rendsburg,9.6579,54.297,Lilienstr. 20-28,24768,Rendsburg,Schleswig-Holstein,"imland GmbH - imland Klinik Rendsburg, Lilienstr. 20-28, 24768 Rendsburg",Schleswig-Holstein,4298721.164730315,3465660.8849064177,15000,45.27898690135387,8,4291221.164730315,4306221.164730315,3458160.8849064177,3473160.8849064177
K000000046,imland GmbH - imland Klinik Eckernförde,9.8178,54.4823,Schleswiger Str. 114-116,24340,Eckernförde,Schleswig-Holstein,"imland GmbH - imland Klinik Eckernförde, Schleswiger Str. 114-116, 24340 Eckernförde",Schleswig-Holstein,4309187.313897285,3486243.821033149,15000,41.86985416193664,4,4301687.313897285,4316687.313897285,3478743.821033149,3493743.821033149
K000000047,HELIOS Klinik Schleswig GmbH,9.5586,54.5178,St. Jürgener Str. 1-3,24837,Schleswig,Schleswig-Holstein,"HELIOS Klinik Schleswig GmbH, St. Jürgener Straße 1-3, 24837 Schleswig",Schleswig-Holstein,4292407.188796034,3490266.778553714,15000,44.38806017975067,9,4284907.188796034,4299907.188796034,3482766.778553714,3497766.778553714
K000000048,"HELIOS Fachklinik, Klinik für Erwachsenenpsychiatrie und Psychosomatische Medizin",9.5711,54.5223,St. Jürgener Str. 5a,24837,Schleswig,Schleswig-Holstein,"HELIOS Fachklinik, Klinik für Erwachsenenpsychiatrie und Psychosomatische Medizin, St. Jürgener Str. 5a, 24837 Schleswig",Schleswig-Holstein,4293219.924944723,3490762.6663589673,15000,45.08130377037142,9,4285719.924944723,4300719.924944723,3483262.6663589673,3498262.6663589673
K000000049,Margarethen Klinik gemeinnützige GmbH,9.9246,54.6588,Konsul-Lorentzen-Str. 3,24376,Kappeln,Schleswig-Holstein,"Margarethen Klinik gemeinnützige GmbH, Konsul-Lorentzen-Straße 3, 24376 Kappeln",Schleswig-Holstein,4316132.428899661,3505872.7730129953,15000,27.684252324001914,4,4308632.428899661,4323632.428899661,3498372.7730129953,3513372.7730129953
K000000050,Medizinische Klinik Borstel,10.1939,53.8211,Parkallee 35,23845,Borstel,Schleswig-Holstein,"Medizinische Klinik Borstel, Parkallee 35, 23845 Borstel",Schleswig-Holstein,4333771.633819363,3412665.3724599024,15000,15.735171213293485,2,4326271.633819363,4341271.633819363,3405165.3724599024,3420165.3724599024
K000000051,Psychiatrisches Krankenhaus Rickling,10.1745,53.9995,Daldorfer Str. 2,24635,Rickling,Schleswig-Holstein,"Psychiatrisches Krankenhaus Rickling, Daldorfer Straße 2, 24635 Rickling",Schleswig-Holstein,4332445.2732399395,3432515.1067521707,15000,23.272010910972146,2,4324945.2732399395,4339945.2732399395,3425015.1067521707,3440015.1067521707
K000000052,Psychiatrisches Krankenhaus Rickling (TK Bad Segeberg),10.3036,53.944,Schillerstr. 13a,23795,Bad Segeberg,Schleswig-Holstein,"Psychiatrisches Krankenhaus Rickling (TK Bad Segeberg), Schillerstraße 13a, 23795 Bad Segeberg",Schleswig-Holstein,4340939.052183179,3426366.8596163117,15000,32.991166694502006,3,4333439.052183179,4348439.052183179,3418866.8596163117,3433866.8596163117
K000000053,Klinikum Bad Bramstedt GmbH,9.8943,53.9041,Oskar-Alexander-Str. 26,24576,Bad Bramstedt,Schleswig-Holstein,"Klinikum Bad Bramstedt GmbH, Oskar-Alexander-Straße 26, 24576 Bad Bramstedt",Schleswig-Holstein,4314051.512158837,3421889.906479867,15000,19.801074240718155,3,4306551.512158837,4321551.512158837,3414389.906479867,3429389.906479867
K000000054,SK GmbH-Standort Am Kurpark,10.3083,53.9435,Am Kurpark 1,23795,Bad Segeberg,Schleswig-Holstein,"SK GmbH-Standort Am Kurpark, Am Kurpark 1, 23795 Bad Segeberg",Schleswig-Holstein,4341247.964870047,3426312.5223162314,15000,32.86482414848158,3,4333747.964870047,4348747.964870047,3418812.5223162314,3433812.5223162314
K000000055,SK GmbH-Standort Praxisklinik Norderstedt,9.9945,53.7045,Heidbergstr. 98,22846,Norderstedt,Schleswig-Holstein,"SK GmbH-Standort Praxisklinik Norderstedt, Heidbergstraße 98, 22846 Norderstedt",Schleswig-Holstein,4320636.7318844665,3399672.616779767,15000,20.138375049991776,2,4313136.7318844665,4328136.7318844665,3392172.616779767,3407172.616779767
K000000056,SK GmbH-Standort Allgemeine Klinik,10.3093,53.9414,Krankenhausstr. 2,23795,Bad Segeberg,Schleswig-Holstein,"SK GmbH-Standort Allgemeine Klinik, Krankenhausstraße 2, 23795 Bad Segeberg",Schleswig-Holstein,4341314.653707406,3426079.1081824107,15000,32.8315910287937,3,4333814.653707406,4348814.653707406,3418579.1081824107,3433579.1081824107
K000000057,Klinikum Itzehoe,9.5019,53.9409,Robert-Koch-Str. 2,25524,Itzehoe,Schleswig-Holstein,"Klinikum Itzehoe, Robert-Koch-Str. 2, 25524 Itzehoe",Schleswig-Holstein,4288284.861744386,3426092.5983293597,15000,25.54201677267639,6,4280784.861744386,4295784.861744386,3418592.5983293597,3433592.5983293597
K000000059,Krankenhaus Reinbek St. Adolf-Stift GmbH,10.2407,53.5107,Hamburger Str. 41,21465,Reinbek,Schleswig-Holstein,"Krankenhaus Reinbek St. Adolf-Stift GmbH, Hamburger Straße 41, 21465 Reinbek",Schleswig-Holstein,4336970.413866331,3378132.400189492,15000,47.25065363364519,9,4329470.413866331,4344470.413866331,3370632.400189492,3385632.400189492
K000000060,DRK-Norddeutsches Epilepsiezentrum für Kinder und Jugendliche,10.2094,54.2889,Henry-Dunant-Str. 6 - 10,24223,Schwentinental,Schleswig-Holstein,"DRK-Norddeutsches Epilepsiezentrum für Kinder und Jugendliche, Henry-Dunant-Str. 6 - 10, 24223 Schwentinental",Schleswig-Holstein,4334639.605379865,3464726.544793063,15000,44.76760765379081,7,4327139.605379865,4342139.605379865,3457226.544793063,3472226.544793063
K000000061,Vamed Ostseeklinik Damp,10.0221,54.5862,Seute-Deern-Ring 20,24351,Ostseebad Damp,Schleswig-Holstein,"Vamed Ostseeklinik Damp, Seute-Deern-Ring 20, 24351 Ostseebad Damp",Schleswig-Holstein,4322429.22189624,3497791.387411542,15000,16.10891893474984,2,4314929.22189624,4329929.22189624,3490291.387411542,3505291.387411542
K000000062,Kinderzentrum Pelzerhaken,10.8642,54.0885,Zum Leuchtturm 4,23730,Neustadt in Holstein,Schleswig-Holstein,"Kinderzentrum Pelzerhaken, Zum Leuchtturm 4, 23730 Neustadt in Holstein",Schleswig-Holstein,4377560.389376469,3442743.251241628,15000,18.037719553507245,4,4370060.389376469,4385060.389376469,3435243.251241628,3450243.251241628
K000000063,nordBLICK Augenklinik Bellevue GmbH,10.1488,54.3454,Lindenallee 21/23,24105,Kiel,Schleswig-Holstein,"nordBLICK Augenklinik Bellevue GmbH, Lindenallee 21/23, 24105 Kiel",Schleswig-Holstein,4330679.17187897,3471004.262479976,15000,49.7259873614635,9,4323179.17187897,4338179.17187897,3463504.262479976,3478504.262479976
K000000064,Paracelsus-Nordseeklinik Helgoland,7.8865,54.1786,Invasorenpfad 1040,27498,Helgoland,Schleswig-Holstein,"Paracelsus-Nordseeklinik Helgoland, Invasorenpfad 1040, 27498 Helgoland",Schleswig-Holstein,4182991.6676073777,3454448.090667455,15000,0.0,0,4175491.6676073777,4190491.6676073777,3446948.090667455,3461948.090667455
K000000065,FEK - Friedrich-Ebert-Krankenhaus Neumünster GmbH,9.9928,54.0654,Friesenstr. 11,24534,Neumünster,Schleswig-Holstein,"FEK - Friedrich-Ebert-Krankenhaus Neumünster GmbH, Friesenstraße 11, 24534 Neumünster",Schleswig-Holstein,4320528.499728398,3439834.94005504,15000,58.88351053247868,6,4313028.499728398,4328028.499728398,3432334.94005504,3447334.94005504
K000000066,CURSCHMANN KLINIK der Klinikgruppe Dr. Guth GmbH & Co. KG,10.7836,53.998,Saunaring 6,23669,Timmendorfer Strand,Schleswig-Holstein,"CURSCHMANN KLINIK der Klinikgruppe Dr. Guth GmbH & Co. KG, Saunaring 6, 23669 Timmendorfer Strand",Schleswig-Holstein,4372396.235216148,3432612.5312309735,15000,42.43777083158384,5,4364896.235216148,4379896.235216148,3425112.5312309735,3440112.5312309735
K000000067,Vorwerker Fachklinik Kinder- und Jugendpsychiatrie (stat. Bereich Lübeck),10.681,53.892,Triftstr. 139-143,23554,Lübeck,Schleswig-Holstein,"Vorwerker Fachklinik Kinder- und Jugendpsychiatrie (stat. Bereich Lübeck), Triftstraße 139-143, 23554 Lübeck",Schleswig-Holstein,4365779.556875441,3420748.830191649,15000,61.10566629903868,14,4358279.556875441,4373279.556875441,3413248.830191649,3428248.830191649
K000000068,Vorwerker Fachklinik (Tagesklinik Lübeck),10.681,53.892,Triftstr. 139-143,23554,Lübeck,Schleswig-Holstein,"Vorwerker Fachklinik (Tagesklinik Lübeck), Triftstraße 139-143, 23554 Lübeck",Schleswig-Holstein,4365779.556875441,3420748.830191649,15000,61.10566629903868,14,4358279.556875441,4373279.556875441,3413248.830191649,3428248.830191649
K000000069,Vorwerker Fachklinik (Tagesklinik Büchen),10.6231,53.4726,Lauenburger Str. 39,21514,Büchen,Schleswig-Holstein,"Vorwerker Fachklinik (Tagesklinik Büchen), Lauenburger Straße 39, 21514 Büchen",Schleswig-Holstein,4362378.962985752,3374043.7629233385,15000,35.21861127501859,4,4354878.962985752,4369878.962985752,3366543.7629233385,3381543.7629233385
K000000070,Vorwerker Fachklinik (Tagesklinik Eutin),10.6013,54.1327,Hospitalstr. 22,23701,Eutin,Schleswig-Holstein,"Vorwerker Fachklinik (Tagesklinik Eutin), Hospitalstraße 22, 23701 Eutin",Schleswig-Holstein,4360313.075865087,3447487.6429028427,15000,32.69735200181493,5,4352813.075865087,4367813.075865087,3439987.6429028427,3454987.6429028427
K000000072,Klinik Klosterstraße GmbH,9.9947,54.0787,Klosterstr. 63-65,24536,Neumünster,Schleswig-Holstein,"Klinik Klosterstraße GmbH, Klosterstraße 63-65, 24536 Neumünster",Schleswig-Holstein,4320653.033503845,3441315.0034968043,15000,60.76470069338604,6,4313153.033503845,4328153.033503845,3433815.0034968043,3448815.0034968043
K000000073,Schön Klinik Neustadt,10.8291,54.0908,Am Kiebitzberg 10,23730,Neustadt in Holstein,Schleswig-Holstein,"Schön Klinik Neustadt, Am Kiebitzberg 10, 23730 Neustadt in Holstein",Schleswig-Holstein,4375260.29568337,3442972.316388374,15000,25.034926564119523,4,4367760.29568337,4382760.29568337,3435472.316388374,3450472.316388374
K000000074,Westküstenklinikum Heide,9.0804,54.199,Esmarchstr. 50,25746,Heide,Schleswig-Holstein,"Westküstenklinikum Heide, Esmarchstraße 50, 25746 Heide",Schleswig-Holstein,4260972.813930081,3455083.9129554722,15000,38.80618440442574,5,4253472.813930081,4268472.813930081,3447583.9129554722,3462583.9129554722
K000000075,Westküstenklinikum Brunsbüttel,9.146,53.8997,Delbrückstr. 2,25541,Brunsbüttel,Schleswig-Holstein,"Westküstenklinikum Brunsbüttel, Delbrückstrasse 2, 25541 Brunsbüttel",Schleswig-Holstein,4264855.527723712,3421726.2140651555,15000,11.058688949855412,3,4257355.527723712,4272355.527723712,3414226.2140651555,3429226.2140651555
K000000076,Praxisklinik Kronshagen,10.098,54.3376,Eichkoppelweg 74,24119,Kronshagen,Schleswig-Holstein,"Praxisklinik Kronshagen, Eichkoppelweg 74, 24119 Kronshagen",Schleswig-Holstein,4327375.923467798,3470130.6155361985,15000,49.12068991856139,10,4319875.923467798,4334875.923467798,3462630.6155361985,3477630.6155361985
K000000077,Krankenhaus Rotes Kreuz Lübeck -Geriatriezentrum-,10.7058,53.8754,Marlistr. 10,23566,Lübeck,Schleswig-Holstein,"Krankenhaus Rotes Kreuz Lübeck -Geriatriezentrum-, Marlistr. 10, 23566 Lübeck",Schleswig-Holstein,4367428.500483857,3418917.207761716,15000,59.39510800378123,14,4359928.500483857,4374928.500483857,3411417.207761716,3426417.207761716
K000000078,Asklepios Klinik Bad Oldesloe,10.3637,53.8126,Schützenstaße 55,23843,Bad Oldesloe,Schleswig-Holstein,"Asklepios Klinik Bad Oldesloe, Schützenstaße 55, 23843 Bad Oldesloe",Schleswig-Holstein,4344960.602428455,3411762.51389132,15000,47.571554745114085,5,4337460.602428455,4352460.602428455,3404262.51389132,3419262.51389132
K000000079,Schön Klinik Bad Bramstedt,9.8884,53.9047,Birkenweg 10,24576,Bad Bramstedt,Schleswig-Holstein,"Schön Klinik Bad Bramstedt, Birkenweg 10, 24576 Bad Bramstedt",Schleswig-Holstein,4313663.763755817,3421957.258576208,15000,20.525383129199557,3,4306163.763755817,4321163.763755817,3414457.258576208,3429457.258576208
K000000080,Klinik für Geriatrie Ratzeburg GmbH,10.7692,53.6824,Röpersberg 47,23909,Ratzeburg,Schleswig-Holstein,"Klinik für Geriatrie Ratzeburg GmbH, Röpersberg 47, 23909 Ratzeburg",Schleswig-Holstein,4371830.038958823,3397482.9701400576,15000,36.9580446556579,5,4364330.038958823,4379330.038958823,3389982.9701400576,3404982.9701400576
K000000082,Paracelsus-Klinik Henstedt-Ulzburg,10.0052,53.7483,Wilstedter Str. 134,24558,Henstedt-Ulzburg,Schleswig-Holstein,"Henstedt-Ulzburg, Wilstedter Straße 134, 24558 Henstedt-Ulzburg",Schleswig-Holstein,4321343.099009675,3404546.837882907,15000,34.25529088510613,5,4313843.099009675,4328843.099009675,3397046.837882907,3412046.837882907
K000000083,Curtius Klinik,10.5659,54.1714,Neue Kampstr. 2,23714,Bad Malente,Schleswig-Holstein,"Curtius Klinik, Neue Kampstrasse 2, 23714 Bad Malente",Schleswig-Holstein,4357964.443784299,3451775.540590252,15000,32.64436302580154,5,4350464.443784299,4365464.443784299,3444275.540590252,3459275.540590252
K000000084,Klinik Manhagen,10.2571,53.6629,Sieker Landstr. 19,22927,Großhansdorf,Schleswig-Holstein,"Klinik Manhagen, Sieker Landstraße 19, 22927 Großhansdorf",Schleswig-Holstein,4337997.730715862,3395073.3544413997,15000,27.740825547713445,2,4330497.730715862,4345497.730715862,3387573.3544413997,3402573.3544413997
K000000085,Johanniter Klinik für Geriatrie Geesthacht,10.3826,53.4266,Johannes-Ritter-Str. 100,21502,Geesthacht,Schleswig-Holstein,"Johanniter Klinik für Geriatrie Geesthacht, Johannes-Ritter-Str. 100, 21502 Geesthacht",Schleswig-Holstein,4346435.326127027,3368814.087482195,15000,23.545273136699922,4,4338935.326127027,4353935.326127027,3361314.087482195,3376314.087482195
K000000086,HELIOS Klinik Kiel,10.1164,54.3046,Hamburger Chaussee 77,24113,Kiel,Schleswig-Holstein,"HELIOS Klinik Kiel, Hamburger Chaussee 77, 24113 Kiel",Schleswig-Holstein,4328579.04883123,3466460.047375165,15000,52.51875737681816,9,4321079.04883123,4336079.04883123,3458960.047375165,3473960.047375165
K000000087,"VAMED Klinik Geesthacht: Akutbereich, enthalten sind nur die Daten der Patientinnen/Patienten der besonderen Einrichtung, ohne Patientinnen/Patienten aus dem Reha-Bereich",10.3826,53.4266,Johannes-Ritter-Str. 100,21502,Geesthacht,Schleswig-Holstein,"VAMED Klinik Geesthacht: Akutbereich, enthalten sind nur die Daten der Patientinnen/Patienten der besonderen Einrichtung, ohne Patientinnen/Patienten aus dem Reha-Bereich, Johannes-Ritter-Straße 100, 21502 Geesthacht",Schleswig-Holstein,4346435.326127027,3368814.087482195,15000,23.545273136699922,4,4338935.326127027,4353935.326127027,3361314.087482195,3376314.087482195
K000000088,"UNIVERSITÄTSKLINIKUM Schleswig-Holstein, Campus Kiel",10.1419,54.3298,Arnold-Heller-Str. 3,24105,Kiel,Schleswig-Holstein,"UNIVERSITÄTSKLINIKUM Schleswig-Holstein, Campus Kiel, Arnold-Heller-Straße 3, 24105 Kiel",Schleswig-Holstein,4330233.806547816,3469267.3455557753,15000,55.306222369634035,10,4322733.806547816,4337733.806547816,3461767.3455557753,3476767.3455557753
K000000089,"UNIVERSITÄTSKLINIKUM Schleswig-Holstein, Campus Lübeck",10.7093,53.8399,Ratzeburger Allee 160,23538,Lübeck,Schleswig-Holstein,"UNIVERSITÄTSKLINIKUM Schleswig-Holstein, Campus Lübeck, Ratzeburger Allee 160, 23538 Lübeck",Schleswig-Holstein,4367697.968344837,3414969.046453106,15000,46.247109087873575,10,4360197.968344837,4375197.968344837,3407469.046453106,3422469.046453106
K000000090,Zentrum für Integrative Psychiatrie - ZIP gGmbH,10.1438,54.3424,Niemannsweg 147,24105,Kiel,Schleswig-Holstein,"Zentrum für Integrative Psychiatrie - ZIP gGmbH, Niemannsweg 147, 24105 Kiel",Schleswig-Holstein,4330354.607008169,3470669.7555588447,15000,50.83483036633367,10,4322854.607008169,4337854.607008169,3463169.7555588447,3478169.7555588447
K000000091,Ameos Klinika Lübeck,10.692,53.8489,Weidenweg 9- 15,23562,Lübeck,Schleswig-Holstein,"Ameos Klinika Lübeck, Weidenweg 9- 15, 23562 Lübeck",Schleswig-Holstein,4366549.329595775,3415959.5442072907,15000,55.283101897934465,13,4359049.329595775,4374049.329595775,3408459.5442072907,3423459.5442072907
K000000092,"Sana Kliniken Lübeck GmbH, Krankenhaus Süd",10.6883,53.8492,Kronsforder Allee 71-73,23560,Lübeck,Schleswig-Holstein,"Sana Kliniken Lübeck GmbH, Krankenhaus Süd, Kronsforder Allee 71-73, 23560 Lübeck",Schleswig-Holstein,4366305.472248047,3415990.6076016733,15000,55.5231100355617,13,4358805.472248047,4373805.472248047,3408490.6076016733,3423490.6076016733
K000000093,Zentrum für Integratrive Psychiatrie - ZIP gGmbH,10.7037,53.834,Ratzeburger Allee 160,23538,Lübeck,Schleswig-Holstein,"Zentrum für Integratrive Psychiatrie - ZIP gGmbH, Ratzeburger Allee 160, 23538 Lübeck",Schleswig-Holstein,4367335.765349383,3414308.903165477,15000,45.593814989505574,10,4359835.765349383,4374835.765349383,3406808.903165477,3421808.903165477
K000000094,Psychiatrische Tagesklinik Neumünster gGmbH,9.988,54.0745,Parkstr. 17,24534,Neumünster,Schleswig-Holstein,"Psychiatrische Tagesklinik Neumünster gGmbH, Parkstr. 17, 24534 Neumünster",Schleswig-Holstein,4320214.336764236,3440847.664092621,15000,60.33934462602022,6,4312714.336764236,4327714.336764236,3433347.664092621,3448347.664092621
K000000095,Universitätsklinikum Hamburg-Eppendorf,9.9783,53.5903,Martinistr. 52,20246,Hamburg,Hamburg,"Universitätsklinikum Hamburg-Eppendorf, Martinistraße 52, 20246 Hamburg",Hamburg,4319562.888342086,3386964.249683469,15000,76.50345903318221,19,4312062.888342086,4327062.888342086,3379464.249683469,3394464.249683469
K000000096,Asklepios Klinik St. Georg,10.0186,53.5585,Lohmühlenstr. 5,20099,Hamburg,Hamburg,"Asklepios Klinik St. Georg, Lohmühlenstr. 5, 20099 Hamburg",Hamburg,4322232.729148497,3383425.3861594987,15000,79.03271166112226,22,4314732.729148497,4329732.729148497,3375925.3861594987,3390925.3861594987
K000000097,Asklepios Klinik Barmbek,10.0361,53.6065,Rübenkamp 220,22291,Hamburg,Hamburg,"Asklepios Klinik Barmbek, Rübenkamp 220, 22291 Hamburg",Hamburg,4323389.861911492,3388767.419120846,15000,53.59253909412422,17,4315889.861911492,4330889.861911492,3381267.419120846,3396267.419120846
K000000098,Schön Klinik Hamburg Eilbek,10.0527,53.5776,Dehnhaide 120,22081,Hamburg,Hamburg,"Schön Klinik Hamburg Eilbek, Dehnhaide 120, 22081 Hamburg",Hamburg,4324491.1681827,3385552.0060616676,15000,69.67429923547813,17,4316991.1681827,4331991.1681827,3378052.0060616676,3393052.0060616676
K000000099,Asklepios Klinik Altona,9.9011,53.5549,Paul-Ehrlich-Str. 1,22763,Hamburg,Hamburg,"Asklepios Klinik Altona, Paul-Ehrlich-Straße 1, 22763 Hamburg",Hamburg,4314444.776362332,3383029.079228064,15000,47.78103311763041,12,4306944.776362332,4321944.776362332,3375529.079228064,3390529.079228064
K000000100,Asklepios Klinikum Harburg,9.9501,53.4611,Eißendorfer Pferdeweg 52,21075,Hamburg,Hamburg,"Asklepios Klinikum Harburg, Eißendorfer Pferdeweg 52, 21075 Hamburg",Hamburg,4317685.291994511,3372587.4047006005,15000,34.866963102747334,5,4310185.291994511,4325185.291994511,3365087.4047006005,3380087.4047006005
K000000101,Asklepios  Westklinikum Hamburg GmbH,9.7737,53.583,Suurheid 20,22559,Hamburg,Hamburg,"Asklepios  Westklinikum Hamburg GmbH, Suurheid 20, 22559 Hamburg",Hamburg,4306010.438906847,3386175.0603040187,15000,21.511581910277165,3,4298510.438906847,4313510.438906847,3378675.0603040187,3393675.0603040187
K000000102,Asklepios Klinik Wandsbek,10.0884,53.5698,Alphonsstr. 14,22043,Hamburg,Hamburg,"Asklepios Klinik Wandsbek, Alphonsstraße 14, 22043 Hamburg",Hamburg,4326857.223491121,3384686.2987552956,15000,73.2792202944468,16,4319357.223491121,4334357.223491121,3377186.2987552956,3392186.2987552956
K000000103,Bundeswehrkrankenhaus Hamburg,10.0747,53.594,Lesserstr. 180,22049,Hamburg,Hamburg,"Bundeswehrkrankenhaus Hamburg, Lesserstraße 180, 22049 Hamburg",Hamburg,4325946.6773606725,3387378.3311831728,15000,60.93324748139554,16,4318446.6773606725,4333446.6773606725,3379878.3311831728,3394878.3311831728
K000000104,Albertinen Krankenhaus / Albertinen Haus gemeinnützige GmbH,9.9049,53.6305,Süntelstr. 11a,22457,Hamburg,Hamburg,"Albertinen Krankenhaus / Albertinen Haus gemeinnützige GmbH, Süntelstraße 11a, 22457 Hamburg",Hamburg,4314707.819783035,3391441.7521284763,15000,40.90712946536981,6,4307207.819783035,4322207.819783035,3383941.7521284763,3398941.7521284763
K000000105,AKK Altonaer Kinderkrankenhaus gGmbH,9.9134,53.5528,Bleickenallee 38,22763,Hamburg,Hamburg,"AKK Altonaer Kinderkrankenhaus gGmbH, Bleickenallee 38, 22763 Hamburg",Hamburg,4315259.753703934,3382794.34189652,15000,53.22493122827481,14,4307759.753703934,4322759.753703934,3375294.34189652,3390294.34189652
K000000106,Ev. Amalie Sieveking - Krankenhaus,10.1493,53.6409,Haselkamp 33,22359,Hamburg,Hamburg,"Ev. Amalie Sieveking - Krankenhaus, Haselkamp 33, 22359 Hamburg",Hamburg,4330875.840577923,3392605.142693367,15000,31.61254654684141,4,4323375.840577923,4338375.840577923,3385105.142693367,3400105.142693367
K000000107,BG Klinikum Hamburg gGmbH,10.1738,53.507,Bergedorfer Str. 10,21033,Hamburg,Hamburg,"BG Klinikum Hamburg gGmbH, Bergedorfer Straße 10, 21033 Hamburg",Hamburg,4332532.6179091185,3377707.9686900447,15000,66.24998063522709,15,4325032.6179091185,4340032.6179091185,3370207.9686900447,3385207.9686900447
K000000108,Evangelisches Krankenhaus Alsterdorf gemeinnützige GmbH,10.0245,53.6141,Elisabeth-Flügge-Str. 1,22337,Hamburg,Hamburg,"Evangelisches Krankenhaus Alsterdorf gemeinnützige GmbH, Elisabeth-Flügge-Straße 1, 22337 Hamburg",Hamburg,4322621.639028757,3389612.851480095,15000,52.63942765395824,14,4315121.639028757,4330121.639028757,3382112.851480095,3397112.851480095
K000000110,Heinrich Sengelmann Tagesklinik Ahrensburg,10.2415,53.6728,Carl-Barckmann-Str. 5,22926,Ahrensburg,Schleswig-Holstein,"Heinrich Sengelmann Tagesklinik Ahrensburg, Carl-Barckmann-Straße 5, 22926 Ahrensburg",Schleswig-Holstein,4336962.648865514,3396171.508352434,15000,25.291709566326585,2,4329462.648865514,4344462.648865514,3388671.508352434,3403671.508352434
K000000111,Heinrich Sengelmann Tagesklinik Reinbek,10.246,53.5215,Kinauweg 9,21465,Reinbek,Schleswig-Holstein,"Heinrich Sengelmann Tagesklinik Reinbek, Kinauweg 9, 21465 Reinbek",Schleswig-Holstein,4337317.940460046,3379335.4308625506,15000,43.13573403741727,6,4329817.940460046,4344817.940460046,3371835.4308625506,3386835.4308625506
K000000112,Heinrich Sengelmann Krankenhaus,10.1536,53.7575,Kayhuder Str. 65,23863,Bargfeld-Stegen,Schleswig-Holstein,"Heinrich Sengelmann Krankenhaus, Kayhuder Straße 65, 23863 Bargfeld-Stegen",Schleswig-Holstein,4331132.408163484,3405581.374836209,15000,19.848727383404487,3,4323632.408163484,4338632.408163484,3398081.374836209,3413081.374836209
K000000113,Israelitisches Krankenhaus in Hamburg,9.9912,53.606,Orchideenstieg 14,22297,Hamburg,Hamburg,"Israelitisches Krankenhaus in Hamburg, Orchideenstieg 14, 22297 Hamburg",Hamburg,4320417.422917345,3388711.217789853,15000,68.15531438488979,18,4312917.422917345,4327917.422917345,3381211.217789853,3396211.217789853
K000000114,Katholisches Kinderkrankenhaus Wilhelmstift gGmbH,10.164,53.5864,Liliencronstr. 130,22149,Hamburg,Hamburg,"Katholisches Kinderkrankenhaus Wilhelmstift gGmbH, Liliencronstraße 130, 22149 Hamburg",Hamburg,4331862.1038780585,3386542.3151300726,15000,52.1048048121292,11,4324362.1038780585,4339362.1038780585,3379042.3151300726,3394042.3151300726
K000000115,Helios ENDO-Klinik Hamburg,9.9545,53.5508,Holstenstr. 2,22767,Hamburg,Hamburg,"Helios ENDO-Klinik Hamburg, Holstenstraße 2, 22767 Hamburg",Hamburg,4317983.9087515855,3382569.2940207454,15000,65.69998665987472,18,4310483.9087515855,4325483.9087515855,3375069.2940207454,3390069.2940207454
K000000116,Krankenhaus Jerusalem,9.9665,53.5694,Moorkamp 2-6,20357,Hamburg,Hamburg,"Krankenhaus Jerusalem, Moorkamp 2-6, 20357 Hamburg",Hamburg,4318780.32945781,3384638.7276142896,15000,74.56127328106703,19,4311280.32945781,4326280.32945781,3377138.7276142896,3392138.7276142896
K000000117,HELIOS Mariahilf Klinik Hamburg,9.938,53.4707,Stader Str. 203 c,21075,Hamburg,Hamburg,"HELIOS Mariahilf Klinik Hamburg, Stader Straße 203 c, 21075 Hamburg",Hamburg,4316882.449239803,3373656.339455688,15000,36.169220003214086,7,4309382.449239803,4324382.449239803,3366156.339455688,3381156.339455688
K000000118,Kath. Marienkrankenhaus gemeinnützige GmbH,10.0308,53.5591,Alfredstr. 9,22087,Hamburg,Hamburg,"Kath. Marienkrankenhaus gemeinnützige GmbH, Alfredstraße 9, 22087 Hamburg",Hamburg,4323041.264670396,3383492.4314984325,15000,78.5821485985699,21,4315541.264670396,4330541.264670396,3375992.4314984325,3390992.4314984325
K000000119,Wilhelmsburger Krankenhaus Groß-Sand,9.986,53.5035,Groß-Sand 3,21107,Hamburg,Hamburg,"Wilhelmsburger Krankenhaus Groß-Sand, Groß-Sand 3, 21107 Hamburg",Hamburg,4320070.9433054235,3377304.7486052243,15000,69.4238544992998,23,4312570.9433054235,4327570.9433054235,3369804.7486052243,3384804.7486052243
K000000120,KLINIK DR. GUTH der Klinikgruppe Dr. Guth GmbH & Co. KG,9.854,53.5571,Jürgensallee 46-48,22609,Hamburg,Hamburg,"KLINIK DR. GUTH der Klinikgruppe Dr. Guth GmbH & Co. KG, Jürgensallee 46-48, 22609 Hamburg",Hamburg,4311323.428820921,3383279.1738272435,15000,37.534251947583165,8,4303823.428820921,4318823.428820921,3375779.1738272435,3390779.1738272435
K000000121,Krankenhaus Tabea,9.791,53.5646,Kösterbergstr. 32,22587,Hamburg,Hamburg,"Krankenhaus Tabea, Kösterbergstr. 32, 22587 Hamburg",Hamburg,4307150.369000316,3384124.0163290543,15000,23.673118309792997,5,4299650.369000316,4314650.369000316,3376624.0163290543,3391624.0163290543
K000000122,PRAXISKLINIK MÜMMELMANNSBERG der Klinikgruppe Dr. Guth GmbH & Co. KG,10.1473,53.5273,Oskar-Schlemmer-Str. 9-17,22115,Hamburg,Hamburg,"PRAXISKLINIK MÜMMELMANNSBERG der Klinikgruppe Dr. Guth GmbH & Co. KG, Oskar-Schlemmer-Str. 9-17, 22115 Hamburg",Hamburg,4330769.551332325,3379963.1171568707,15000,72.35759253377532,14,4323269.551332325,4338269.551332325,3372463.1171568707,3387463.1171568707
K000000124,Asklepios Klinik Nord - Heidberg,10.0286,53.6746,Tangstedter Landstr. 400,22417,Hamburg,Hamburg,"Asklepios Klinik Nord - Heidberg, Tangstedter Landstraße 400, 22417 Hamburg",Hamburg,4322890.324573078,3396345.5980059896,15000,13.691325788088148,4,4315390.324573078,4330390.324573078,3388845.5980059896,3403845.5980059896
K000000125,Praxis-Klinik Bergedorf,10.2062,53.494,Alte Holstenstr. 2 und 16,21031,Hamburg,Hamburg,"Praxis-Klinik Bergedorf, Alte Holstenstraße 2 und 16, 21031 Hamburg",Hamburg,4334686.6983639775,3376266.927943968,15000,59.4300607337032,11,4327186.6983639775,4342186.6983639775,3368766.927943968,3383766.927943968
K000000126,Bethesda Krankenhaus Bergedorf gGmbH,10.2366,53.4858,Glindersweg 80,21029,Hamburg,Hamburg,"Bethesda Krankenhaus Bergedorf gGmbH, Glindersweg 80, 21029 Hamburg",Hamburg,4336707.528478974,3375360.572211593,15000,57.55673552927711,9,4329207.528478974,4344207.528478974,3367860.572211593,3382860.572211593
K000000127,Universitäres Herz- und Gefäßzentrum UKE Hamburg GmbH,9.9739,53.5907,Martinistr. 52,20246,Hamburg,Hamburg,"Universitäres Herz- und Gefäßzentrum UKE Hamburg GmbH, Martinistraße 52, 20246 Hamburg",Hamburg,4319271.508669494,3387008.8590520755,15000,75.92480228327399,19,4311771.508669494,4326771.508669494,3379508.8590520755,3394508.8590520755
K000000128,Martini-Klinik am UKE GmbH,9.9783,53.5903,Martinistr. 52,20246,Hamburg,Hamburg,"Martini-Klinik am UKE GmbH, Martinistraße 52, 20246 Hamburg",Hamburg,4319562.888342086,3386964.249683469,15000,76.50345903318221,19,4312062.888342086,4327062.888342086,3379464.249683469,3394464.249683469
K000000129,Facharztklinik Hamburg,9.9726,53.5883,Martinistr. 78,20251,Hamburg,Hamburg,"Facharztklinik Hamburg, Martinistrasse 78, 20251 Hamburg",Hamburg,4319185.313030573,3386741.8109767195,15000,76.24490269721773,19,4311685.313030573,4326685.313030573,3379241.8109767195,3394241.8109767195
K000000130,AGAPLESION DIAKONIEKLINIKUM HAMBURG,9.9669,53.5723,Hohe Weide 17,20259,Hamburg,Hamburg,"AGAPLESION DIAKONIEKLINIKUM HAMBURG, Hohe Weide 17, 20259 Hamburg",Hamburg,4318806.982146049,3384961.436733425,15000,75.16666038204336,19,4311306.982146049,4326306.982146049,3377461.436733425,3392461.436733425
K000000131,Helios Klinik Bad Gandersheim,10.027,51.8735,Albert-Rohloff-Str. 2,37581,Bad Gandersheim,Niedersachsen,"Helios Klinik Bad Gandersheim, Albert-Rohloff-Straße 2, 37581 Bad Gandersheim",Niedersachsen,4322859.525236419,3195925.162090934,15000,55.794000967144896,6,4315359.525236419,4330359.525236419,3188425.162090934,3203425.162090934
K000000132,Asklepios Harzklinik Bad Harzburg,10.5754,51.8862,Ilsenburger Str. 95,38667,Bad Harzburg,Niedersachsen,"Asklepios Harzklinik Bad Harzburg, Ilsenburger Straße 95, 38667 Bad Harzburg",Niedersachsen,4360616.9156150175,3197494.1854714686,15000,45.75487732383592,14,4353116.9156150175,4368116.9156150175,3189994.1854714686,3204994.1854714686
K000000133,Klinik Dr. Muschinsky,10.4687,51.6238,Wiesenbek 7 - 10,37431,Bad Lauterberg,Niedersachsen,"Klinik Dr. Muschinsky, Wiesenbek 7 - 10, 37431 Bad Lauterberg",Niedersachsen,4353458.19962411,3168246.7089768685,15000,39.06932107356472,8,4345958.19962411,4360958.19962411,3160746.7089768685,3175746.7089768685
K000000134,Diabeteszentrum Bad Lauterberg,10.4716,51.628,Kirchberg 21,37431,Bad Lauterberg,Niedersachsen,"Diabeteszentrum Bad Lauterberg, Kirchberg 21, 37431 Bad Lauterberg",Niedersachsen,4353656.009221937,3168715.288178272,15000,40.87872081801032,6,4346156.009221937,4361156.009221937,3161215.288178272,3176215.288178272
K000000135,Städtisches Klinikum Braunschweig gGmbH,10.5101,52.2678,Freisestr. 9/10,38118,Braunschweig,Niedersachsen,"Städtisches Klinikum Braunschweig gGmbH, Freisestraße 9/10, 38118 Braunschweig",Niedersachsen,4355823.1663072845,3239919.9291671915,15000,82.38200268404431,20,4348323.1663072845,4363323.1663072845,3232419.9291671915,3247419.9291671915
K000000136,Krankenhaus Marienstift,10.545,52.2585,Helmstedter Str. 35,38102,Braunschweig,Niedersachsen,"Krankenhaus Marienstift, Helmstedter Str. 35, 38102 Braunschweig",Niedersachsen,4358213.417368327,3238902.3873614036,15000,82.53223627075026,19,4350713.417368327,4365713.417368327,3231402.3873614036,3246402.3873614036
K000000138,Stiftung Herzogin Elisabeth Hospital,10.5266,52.2331,Leipziger Str. 24,38124,Braunschweig,Niedersachsen,"Stiftung Herzogin Elisabeth Hospital, Leipziger Str. 24, 38124 Braunschweig",Niedersachsen,4356977.567180944,3236066.917619766,15000,80.61661568454934,21,4349477.567180944,4364477.567180944,3228566.917619766,3243566.917619766
K000000139,Kirchberg-Klinik Bad Lauterberg,10.4688,51.626,Kirchberg 7-11,37431,Bad Lauterberg,Niedersachsen,"Kirchberg-Klinik Bad Lauterberg, Kirchberg 7-11, 37431 Bad Lauterberg",Niedersachsen,4353463.553907723,3168491.522097729,15000,39.02475930988021,7,4345963.553907723,4360963.553907723,3160991.522097729,3175991.522097729
K000000140,Asklepios Harzklinik Clausthal-Zellerfeld,10.3336,51.8078,Windmühlenstr. 1,38678,Clausthal-Zellerfeld,Niedersachsen,"Asklepios Harzklinik Clausthal-Zellerfeld, Windmühlenstraße 1, 38678 Clausthal-Zellerfeld",Niedersachsen,4344008.831419092,3188667.3515076716,15000,25.69554215999276,7,4336508.831419092,4351508.831419092,3181167.3515076716,3196167.3515076716
K000000141,St. Martini GmbH Krankenhaus Duderstadt,10.2467,51.5167,Göttinger Str. 34,37115,Duderstadt,Niedersachsen,"St. Martini GmbH Krankenhaus Duderstadt, Göttinger Str. 34, 37115 Duderstadt",Niedersachsen,4338124.671527733,3156255.552760158,15000,24.535723821101058,5,4330624.671527733,4345624.671527733,3148755.552760158,3163755.552760158
K000000142,Einbecker BürgerSpital GmbH,9.8686,51.8336,Andershäuser Str. 8,37574,Einbeck,Niedersachsen,"Einbecker BürgerSpital GmbH, Andershäuser Str. 8, 37574 Einbeck",Niedersachsen,4311942.311863914,3191493.511859321,15000,52.57352753882637,9,4304442.311863914,4319442.311863914,3183993.511859321,3198993.511859321
K000000143,HELIOS Klinikum Gifhorn GmbH,10.5476,52.4969,Campus 6,38518,Gifhorn,Niedersachsen,"HELIOS Klinikum Gifhorn GmbH, Campus 6, 38518 Gifhorn",Niedersachsen,4358190.5533875,3265430.5859414637,15000,50.900953700730916,8,4350690.5533875,4365690.5533875,3257930.5859414637,3272930.5859414637
K000000144,Universitätsmedizin Göttingen,9.9427,51.551,Robert-Koch-Str. 40,37075,Göttingen,Niedersachsen,"Universitätsmedizin Göttingen, Robert-Koch-Straße 40, 37075 Göttingen",Niedersachsen,4317025.504755013,3160044.3508091765,15000,44.91476657752439,6,4309525.504755013,4324525.504755013,3152544.3508091765,3167544.3508091765
K000000145,Asklepios Fachklinikum Göttingen,9.9194,51.5251,Rosdorfer Weg 70,37081,Göttingen,Niedersachsen,"Asklepios Fachklinikum Göttingen, Rosdorfer Weg 70, 37081 Göttingen",Niedersachsen,4315406.172960525,3157164.280108587,15000,47.16144811669804,6,4307906.172960525,4322906.172960525,3149664.280108587,3164664.280108587
K000000146,Evangelisches Krankenhaus Göttingen-Weende gGmbH,9.9441,51.5545,An der Lutter 24,37075,Göttingen,Niedersachsen,"Evangelisches Krankenhaus Göttingen-Weende gGmbH, An der Lutter 24, 37075 Göttingen",Niedersachsen,4317122.910569483,3160433.681704938,15000,42.78780241362211,6,4309622.910569483,4324622.910569483,3152933.681704938,3167933.681704938
K000000147,Asklepios Harzklinik Goslar,10.4425,51.9284,Kösliner Str. 12,38642,Goslar,Niedersachsen,"Asklepios Harzklinik Goslar, Kösliner Straße 12, 38642 Goslar",Niedersachsen,4351438.231367925,3202125.664561551,15000,57.03951481017469,12,4343938.231367925,4358938.231367925,3194625.664561551,3209625.664561551
K000000148,Klinikum Hann. Münden,9.636,51.4097,Vogelsang 105,34346,Hann. Münden,Niedersachsen,"Klinikum Hann. Münden, Vogelsang 105, 34346 Hann. Münden",Niedersachsen,4295673.801488304,3144385.224971038,15000,36.17938429060594,5,4288173.801488304,4303173.801488304,3136885.224971038,3151885.224971038
K000000149,HELIOS St. Marienberg Klinik Helmstedt,10.9998,52.2317,Conringstr. 26,38350,Helmstedt,Niedersachsen,"HELIOS St. Marienberg Klinik Helmstedt, Conringstraße 26, 38350 Helmstedt",Niedersachsen,4389307.173254277,3236249.901277971,15000,47.332406881913194,10,4381807.173254277,4396807.173254277,3228749.901277971,3243749.901277971
K000000150,AWO Psychiatriezentrum,10.8111,52.246,Vor dem Kaiserdom 10,38154,Königslutter am Elm,Niedersachsen,"AWO Psychiatriezentrum, Vor dem Kaiserdom 10, 38154 Königslutter am Elm",Niedersachsen,4376397.940869461,3237680.7280659243,15000,24.645278050487047,3,4368897.940869461,4383897.940869461,3230180.7280659243,3245180.7280659243
K000000151,"DR. FONTHEIM, Klinik für Psychiatrie, Psychotherapie und Psychosomatik",10.4313,52.023,Lindenstr. 15,38704,Liebenburg,Niedersachsen,"DR. FONTHEIM, Klinik für Psychiatrie, Psychotherapie und Psychosomatik, Lindenstraße 15, 38704 Liebenburg",Niedersachsen,4350605.459274378,3212646.744366468,15000,38.66702885595248,7,4343105.459274378,4358105.459274378,3205146.744366468,3220146.744366468
K000000152,HELIOS Albert-Schweitzer-Klinik Northeim [NOM],9.9783,51.7299,Albert-Schweitzer-Weg 1,37154,Northeim,Niedersachsen,"HELIOS Albert-Schweitzer-Klinik Northeim [NOM], Albert-Schweitzer-Weg 1, 37154 Northeim",Niedersachsen,4319500.737985978,3179947.555276049,15000,38.64470626038891,6,4312000.737985978,4327000.737985978,3172447.555276049,3187447.555276049
K000000153,Helios Klinik Herzberg/Osterode,10.3289,51.6629,Dr.-Frössel-Allee 1,37412,Herzberg am Harz,Niedersachsen,"Helios Klinik Herzberg/Osterode, Dr.-Frössel-Allee 1, 37412 Herzberg am Harz",Niedersachsen,4343757.335659082,3172544.0708346423,15000,47.507757139953995,7,4336257.335659082,4351257.335659082,3165044.0708346423,3180044.0708346423
K000000154,Klinikum Peine gGmbH,10.2371,52.3032,Virchowstr. 8h,31226,Peine,Niedersachsen,"Klinikum Peine gGmbH, Virchowstraße 8h, 31226 Peine",Niedersachsen,4337173.432933617,3243763.3280922673,15000,54.23357407307642,12,4329673.432933617,4344673.432933617,3236263.3280922673,3251263.3280922673
K000000155,Asklepios Fachklinikum Tiefenbrunn,9.8699,51.4994,Tiefenbrunn _,37124,Rosdorf,Niedersachsen,"Asklepios Fachklinikum Tiefenbrunn, Tiefenbrunn _, 37124 Rosdorf",Niedersachsen,4311965.675240987,3154309.907922691,15000,38.58060536564939,5,4304465.675240987,4319465.675240987,3146809.907922691,3161809.907922691
K000000156,St. Elisabeth-Krankenhaus Salzgitter,10.3711,52.0454,Liebenhaller Str. 20,38259,Salzgitter,Niedersachsen,"St. Elisabeth-Krankenhaus Salzgitter, Liebenhaller Str. 20, 38259 Salzgitter",Niedersachsen,4346460.517987481,3215116.373493704,15000,45.845392012059875,6,4338960.517987481,4353960.517987481,3207616.373493704,3222616.373493704
K000000157,Helios Klinikum Salzgitter GmbH,10.3195,52.1549,Kattowitzer Str. 191,38226,Salzgitter,Niedersachsen,"Helios Klinikum Salzgitter GmbH, Kattowitzer Str. 191, 38226 Salzgitter",Niedersachsen,4342866.812906244,3227283.457028864,15000,66.08960081233708,9,4335366.812906244,4350366.812906244,3219783.457028864,3234783.457028864
K000000158,Helios Klinik Wittingen GmbH,10.739,52.7304,Gustav-Dobberkau-Str. 5,29378,Wittingen,Niedersachsen,"Helios Klinik Wittingen GmbH, Gustav-Dobberkau-Straße 5, 29378 Wittingen",Niedersachsen,4370923.617321948,3291527.3150086016,15000,54.728784788300366,11,4363423.617321948,4378423.617321948,3284027.3150086016,3299027.3150086016
K000000159,Städtisches Klinikum Wolfenbüttel gGmbH,10.5331,52.1801,Alter Weg 80,38302,Wolfenbüttel,Niedersachsen,"Städtisches Klinikum Wolfenbüttel gGmbH, Alter Weg 80, 38302 Wolfenbüttel",Niedersachsen,4357464.93484512,3230172.937461161,15000,71.66638302643139,16,4349964.93484512,4364964.93484512,3222672.937461161,3237672.937461161
K000000160,Klinikum Wolfsburg,10.7688,52.4132,Sauerbruchstr. 7,38440,Wolfsburg,Niedersachsen,"Klinikum Wolfsburg, Sauerbruchstraße 7, 38440 Wolfsburg",Niedersachsen,4373311.772773199,3256253.262389895,15000,29.080248393323128,5,4365811.772773199,4380811.772773199,3248753.262389895,3263753.262389895
K000000161,Venenzentrum Braunschweig,10.5439,52.2633,Kastanienallee 18-19,38102,Braunschweig,Niedersachsen,"Venenzentrum Braunschweig, Kastanienallee 18-19, 38102 Braunschweig",Niedersachsen,4358134.30671181,3239435.916242878,15000,82.22543230885722,19,4350634.30671181,4365634.30671181,3231935.916242878,3246935.916242878
K000000162,Asklepios Kliniken Schildautal,10.2169,51.8832,Karl-Herold-Str. 1,38723,Seesen,Niedersachsen,"Asklepios Kliniken Schildautal, Karl-Herold-Straße 1, 38723 Seesen",Niedersachsen,4335934.948188805,3197026.301262084,15000,61.44691723812624,13,4328434.948188805,4343434.948188805,3189526.301262084,3204526.301262084
K000000163,Evangelisches Krankenhaus Göttingen-Weende gGmbH - Krankenhaus Neu-Mariahilf,9.942,51.5414,Waldweg 9,37073,Göttingen,Niedersachsen,"Evangelisches Krankenhaus Göttingen-Weende gGmbH - Krankenhaus Neu-Mariahilf, Waldweg 9, 37073 Göttingen",Niedersachsen,4316976.103414644,3158976.304954335,15000,45.551745237353565,6,4309476.103414644,4324476.103414644,3151476.304954335,3166476.304954335
K000000164,AGAPLESION KRANKENHAUS NEU BETHLEHEM gGmbH,9.9422,51.5403,Humboldtallee 8,37073,Göttingen,Niedersachsen,"AGAPLESION KRANKENHAUS NEU BETHLEHEM gGmbH, Humboldtallee 8, 37073 Göttingen",Niedersachsen,4316989.882169501,3158853.9094254086,15000,45.54043623383682,6,4309489.882169501,4324489.882169501,3151353.9094254086,3166353.9094254086
K000000165,Augenklinik Dr. Hoffmann,10.5276,52.2555,Wolfenbütteler Str. 82,38102,Braunschweig,Niedersachsen,"Augenklinik Dr. Hoffmann, Wolfenbütteler Str. 82, 38102 Braunschweig",Niedersachsen,4357027.770277232,3238559.831800862,15000,83.40299930621036,20,4349527.770277232,4364527.770277232,3231059.831800862,3246059.831800862
K000000166,AMEOS Klinikum Alfeld,9.8325,51.9942,Landrat-Beushausen-Str. 26,31061,Alfeld,Niedersachsen,"AMEOS Klinikum Alfeld, Landrat-Beushausen-Str. 26, 31061 Alfeld",Niedersachsen,4309494.958630657,3209367.8676297474,15000,32.63930396607629,5,4301994.958630657,4316994.958630657,3201867.8676297474,3216867.8676297474
K000000167,AGAPLESION EV. BATHILDISKRANKENHAUS gemeinnützige GmbH,9.2738,51.9853,Maulbeerallee 4,31812,Bad Pyrmont,Niedersachsen,"AGAPLESION EV. BATHILDISKRANKENHAUS gemeinnützige GmbH, Maulbeerallee 4, 31812 Bad Pyrmont",Niedersachsen,4271110.657486157,3208612.8674195935,15000,32.47621258114192,5,4263610.657486157,4278610.657486157,3201112.8674195935,3216112.8674195935
K000000168,"Kliniken Landkreis Diepholz gGmbH, Klinik Bassum",8.7296,52.8444,Marie-Hackfeld-Str. 6,27211,Bassum,Niedersachsen,"Kliniken Landkreis Diepholz gGmbH, Klinik Bassum, Marie-Hackfeld-Straße 6, 27211 Bassum",Niedersachsen,4235403.905258604,3304707.371146786,15000,29.65149196912168,3,4227903.905258604,4242903.905258604,3297207.371146786,3312207.371146786
K000000170,Krankenhaus Lindenbrunn,9.5498,52.1095,Lindenbrunn 1,31863,Coppenbrügge,Niedersachsen,"Krankenhaus Lindenbrunn, Lindenbrunn 1, 31863 Coppenbrügge",Niedersachsen,4290156.802047722,3222279.1543927067,15000,28.91678361553124,4,4282656.802047722,4297656.802047722,3214779.1543927067,3229779.1543927067
K000000172,"Kliniken Landkreis Diepholz gGmbH, Klinik Diepholz",8.3767,52.6105,Eschfeldstaße 8,49356,Diepholz,Niedersachsen,"Kliniken Landkreis Diepholz gGmbH, Klinik Diepholz, Eschfeldstaße 8, 49356 Diepholz",Niedersachsen,4211045.636528655,3279158.467505919,15000,26.936921758945722,2,4203545.636528655,4218545.636528655,3271658.467505919,3286658.467505919
K000000173,Johanniter-Krankenhaus Gronau GmbH,9.7677,52.0827,Johanniterstr. 1-3,31028,Gronau,Niedersachsen,"Johanniter-Krankenhaus Gronau GmbH, Johanniterstraße 1-3, 31028 Gronau",Niedersachsen,4305075.51465673,3219227.2480895706,15000,44.168054260100114,6,4297575.51465673,4312575.51465673,3211727.2480895706,3226727.2480895706
K000000174,Gesundheitseinrichtungen Hameln-Pyrmont GmbH - Sana Klinikum Hameln-Pyrmont,9.3523,52.107,Saint-Maur-Platz 1,31785,Hameln,Niedersachsen,"Gesundheitseinrichtungen Hameln-Pyrmont GmbH - Sana Klinikum Hameln-Pyrmont, Saint-Maur-Platz 1, 31785 Hameln",Niedersachsen,4276623.9494140055,3222102.9246242433,15000,48.526724078542465,5,4269123.9494140055,4284123.9494140055,3214602.9246242433,3229602.9246242433
K000000176,Sophienklinik GmbH,9.7506,52.3701,Bischofsholer Damm 160,30173,Hannover,Niedersachsen,"Sophienklinik GmbH, Bischofsholer Damm 160, 30173 Hannover",Niedersachsen,4304013.144725992,3251210.227125037,15000,69.42673645880474,14,4296513.144725992,4311513.144725992,3243710.227125037,3258710.227125037
K000000177,DRK-Krankenhaus Clementinenhaus,9.7449,52.3868,Lützerodestr. 1,30161,Hannover,Niedersachsen,"DRK-Krankenhaus Clementinenhaus, Lützerodestraße 1, 30161 Hannover",Niedersachsen,4303631.453968472,3253069.8237850005,15000,67.31778317220291,16,4296131.453968472,4311131.453968472,3245569.8237850005,3260569.8237850005
K000000178,Kinder- und Jugendkrankenhaus AUF DER BULT,9.7778,52.3601,Janusz-Korczak-Allee 12,30173,Hannover,Niedersachsen,"Kinder- und Jugendkrankenhaus AUF DER BULT, Janusz-Korczak-Allee 12, 30173 Hannover",Niedersachsen,4305862.343434323,3250091.501682743,15000,65.42822053534239,15,4298362.343434323,4313362.343434323,3242591.501682743,3257591.501682743
K000000179,DIAKOVERE Henriettenstift,9.7538,52.3698,Marienstr. 72-90,30171,Hannover,Niedersachsen,"DIAKOVERE Henriettenstift, Marienstraße 72-90, 30171 Hannover",Niedersachsen,4304230.985230496,3251176.1035281364,15000,69.06596802086413,15,4296730.985230496,4311730.985230496,3243676.1035281364,3258676.1035281364
K000000180,DIAKOVERE Friederikenstift,9.7244,52.3711,Humboldtstr. 5,30169,Hannover,Niedersachsen,"DIAKOVERE Friederikenstift, Humboldtstraße 5, 30169 Hannover",Niedersachsen,4302229.071892359,3251327.9337315434,15000,66.21596812052032,14,4294729.071892359,4309729.071892359,3243827.9337315434,3258827.9337315434
K000000181,KRH Klinikum Siloah,9.8087,52.4073,Stadionbrücke 4,30449,Hannover,Niedersachsen,"KRH Klinikum Siloah, Stadionbrücke 4, 30449 Hannover",Niedersachsen,4307981.300120578,3255337.603155711,15000,57.76797430661866,15,4300481.300120578,4315481.300120578,3247837.603155711,3262837.603155711
K000000183,KRH Klinikum Nordstadt,9.7145,52.3926,Haltenhoffstr. 41,30167,Hannover,Niedersachsen,"KRH Klinikum Nordstadt, Haltenhoffstraße 41, 30167 Hannover",Niedersachsen,4301564.216288085,3253722.889674511,15000,63.00017584218419,15,4294064.216288085,4309064.216288085,3246222.889674511,3261222.889674511
K000000184,Medizinische Hochschule Hannover,9.8059,52.384,Carl-Neuberg-Str. 1,30625,Hannover,Niedersachsen,"Medizinische Hochschule Hannover, Carl-Neuberg-Straße 1, 30625 Hannover",Niedersachsen,4307783.806428844,3252745.4461576887,15000,55.90331509596057,14,4300283.806428844,4315283.806428844,3245245.4461576887,3260245.4461576887
K000000185,Vinzenzkrankenhaus Hannover,9.8146,52.3589,Lange-Feld-Str. 31,30559,Hannover,Niedersachsen,"Vinzenzkrankenhaus Hannover, Lange-Feld-Strasse 31, 30559 Hannover",Niedersachsen,4308369.041728942,3249950.956767842,15000,53.952046075593465,13,4300869.041728942,4315869.041728942,3242450.956767842,3257450.956767842
K000000186,BDH-Klinik Hessisch Oldendorf gGmbH,9.2483,52.1737,Greitstr. 18-28,31840,Hessisch Oldendorf,Niedersachsen,"BDH-Klinik Hessisch Oldendorf gGmbH, Greitstraße 18-28, 31840 Hessisch Oldendorf",Niedersachsen,4269575.613330224,3229592.693899345,15000,18.25430368875081,1,4262075.613330224,4277075.613330224,3222092.693899345,3237092.693899345
K000000187,St. Bernward Krankenhaus,9.947,52.1467,Treibestr. 9,31134,Hildesheim,Niedersachsen,"St. Bernward Krankenhaus, Treibestr. 9, 31134 Hildesheim",Niedersachsen,4317371.962742237,3226324.4175129225,15000,48.16318726430528,7,4309871.962742237,4324871.962742237,3218824.4175129225,3233824.4175129225
K000000188,Helios Klinikum Hildesheim GmbH,9.9765,52.1515,Senator-Braun-Allee 33,31135,Hildesheim,Niedersachsen,"Helios Klinikum Hildesheim GmbH, Senator-Braun-Allee 33, 31135 Hildesheim",Niedersachsen,4319391.514578234,3226857.452259155,15000,49.005764540645785,6,4311891.514578234,4326891.514578234,3219357.452259155,3234357.452259155
K000000189,AGAPLESION EVANGELISCHES KRANKENHAUS HOLZMINDEN,9.4547,51.8343,Forster Weg 34,37603,Holzminden,Niedersachsen,"AGAPLESION EVANGELISCHES KRANKENHAUS HOLZMINDEN, Forster Weg 34, 37603 Holzminden",Niedersachsen,4283412.247321541,3191703.748638527,15000,22.810600019594293,4,4275912.247321541,4290912.247321541,3184203.748638527,3199203.748638527
K000000190,KRH Psychiatrie Langenhagen,9.7401,52.4438,Rohdehof 3,30853,Langenhagen,Niedersachsen,"KRH Psychiatrie Langenhagen, Rohdehof 3, 30853 Langenhagen",Niedersachsen,4303327.3954402385,3259413.5417412906,15000,39.00368002805586,6,4295827.3954402385,4310827.3954402385,3251913.5417412906,3266913.5417412906
K000000191,Paracelsus-Klinik am Silbersee,9.7576,52.4339,Oertzeweg 24,30851,Langenhagen,Niedersachsen,"Paracelsus-Klinik am Silbersee, Oertzeweg 24, 30851 Langenhagen",Niedersachsen,4304513.664066651,3258307.828928702,15000,53.5157489676431,11,4297013.664066651,4312013.664066651,3250807.828928702,3265807.828928702
K000000193,Burghof-Klinik,9.0816,52.1842,Ritterstr. 19,31737,Rinteln,Niedersachsen,"Burghof-Klinik, Ritterstraße 19, 31737 Rinteln",Niedersachsen,4258186.942447311,3230891.670193686,15000,40.166240722446496,8,4250686.942447311,4265686.942447311,3223391.670193686,3238391.670193686
K000000194,Klinikum Wahrendorff,9.9337,52.3449,Rudolf-Wahrendorff-Str. 22,31319,Sehnde OT Ilten,Niedersachsen,"Klinikum Wahrendorff, Rudolf-Wahrendorff-Str. 22, 31319 Sehnde OT Ilten",Niedersachsen,4316481.674571121,3248379.1128763696,15000,51.69641163346109,11,4308981.674571121,4323981.674571121,3240879.1128763696,3255879.1128763696
K000000195,Augenklinik Stadthagen,9.2064,52.3176,Brunnenstr. 12,31655,Stadthagen,Niedersachsen,"Augenklinik Stadthagen, Brunnenstr. 12, 31655 Stadthagen",Niedersachsen,4266884.384250747,3245634.2170857196,15000,38.201848538903505,5,4259384.384250747,4274384.384250747,3238134.2170857196,3253134.2170857196
K000000197,"Kliniken Landkreis Diepholz gGmbH, Klinik Sulingen",8.8053,52.6836,Schmelingstr. 47,27232,Sulingen,Niedersachsen,"Kliniken Landkreis Diepholz gGmbH, Klinik Sulingen, Schmelingstraße 47, 27232 Sulingen",Niedersachsen,4240207.757502387,3286729.487971854,15000,33.874603030508126,5,4232707.757502387,4247707.757502387,3279229.487971854,3294229.487971854
K000000201,DIAKOVERE Annastift,9.81,52.3692,Anna-von-Borries-Str. 1-7,30625,Hannover,Niedersachsen,"DIAKOVERE Annastift, Anna-von-Borries-Straße 1-7, 30625 Hannover",Niedersachsen,4308058.656674398,3251097.8725688043,15000,54.91494565880701,13,4300558.656674398,4315558.656674398,3243597.8725688043,3258597.8725688043
K000000202,Deister Süntel Klinik,9.4745,52.2076,Deisterallee 36,31848,Bad Münder,Niedersachsen,"Deister Süntel Klinik, Deisterallee 36, 31848 Bad Münder",Niedersachsen,4285077.047906273,3233229.030545588,15000,27.262950082598326,4,4277577.047906273,4292577.047906273,3225729.030545588,3240729.030545588
K000000203,KRH Geriatrie Langenhagen (Akut-Geriatrie),9.7401,52.4438,Rohdehof 3,30853,Langenhagen,Niedersachsen,"KRH Geriatrie Langenhagen (Akut-Geriatrie), Rohdehof 3, 30853 Langenhagen",Niedersachsen,4303327.3954402385,3259413.5417412906,15000,39.00368002805586,6,4295827.3954402385,4310827.3954402385,3251913.5417412906,3266913.5417412906
K000000204,Helios Kliniken Mittelweser / Standort Nienburg,9.2245,52.6355,Ziegelkampstr. 39,31582,Nienburg,Niedersachsen,"Helios Kliniken Mittelweser, Ziegelkampstraße 39, 31582 Nienburg",Niedersachsen,4268497.382300123,3280993.3328440087,15000,49.781577502659815,4,4260997.382300123,4275997.382300123,3273493.3328440087,3288493.3328440087
K000000205,Helios Kliniken Mittelweser / Standort Stolzenau,9.0683,52.5159,Holzhäuser Weg 28,31592,Stolzenau,Niedersachsen,"Helios Kliniken Mittelweser, Holzhäuser Weg 28, 31592 Stolzenau",Niedersachsen,4257751.603554161,3267809.8015356283,15000,43.530859580078406,7,4250251.603554161,4265251.603554161,3260309.8015356283,3275309.8015356283
K000000206,KRH Klinikum Robert Koch Gehrden,9.5977,52.3041,Von-Reden-Str. 1,30989,Gehrden,Niedersachsen,"KRH Klinikum Robert Koch Gehrden, Von-Reden-Straße 1, 30989 Gehrden",Niedersachsen,4293558.349183736,3243912.945464558,15000,34.40017154294602,5,4286058.349183736,4301058.349183736,3236412.945464558,3251412.945464558
K000000207,KRH Klinikum Agnes Karll Laatzen,9.7987,52.3074,Hildesheimer Str. 158,30880,Laatzen,Niedersachsen,"KRH Klinikum Agnes Karll Laatzen, Hildesheimer Straße 158, 30880 Laatzen",Niedersachsen,4307269.901177495,3244223.3184184376,15000,45.23608349136947,11,4299769.901177495,4314769.901177495,3236723.3184184376,3251723.3184184376
K000000208,KRH Klinikum Großburgwedel,9.8617,52.4963,Fuhrberger Str. 8,30938,Burgwedel,Niedersachsen,"KRH Klinikum Großburgwedel, Fuhrberger Straße 8, 30938 Burgwedel",Niedersachsen,4311607.056325029,3265232.8170973198,15000,18.492224925522866,1,4304107.056325029,4319107.056325029,3257732.8170973198,3272732.8170973198
K000000209,AMEOS Klinikum Hildesheim,9.9842,52.1464,Goslarsche Landstr. 60,31135,Hildesheim,Niedersachsen,"AMEOS Klinikum Hildesheim, Goslarsche Landstraße 60, 31135 Hildesheim",Niedersachsen,4319918.426816956,3226289.8342826758,15000,48.94430131343165,6,4312418.426816956,4327418.426816956,3218789.8342826758,3233789.8342826758
K000000210,KRH Klinikum Neustadt am Rübenberge,9.4661,52.4934,Lindenstr. 75,31535,Neustadt am Rübenberge,Niedersachsen,"KRH Klinikum Neustadt am Rübenberge, Lindenstraße 75, 31535 Neustadt am Rübenberge",Niedersachsen,4284736.99815131,3265034.219599412,15000,26.51581997203919,5,4277236.99815131,4292236.99815131,3257534.219599412,3272534.219599412
K000000211,KRH Klinikum Lehrte,9.9836,52.3799,Manskestr. 22,31275,Lehrte,Niedersachsen,"KRH Klinikum Lehrte, Manskestraße 22, 31275 Lehrte",Niedersachsen,4319883.225634345,3252271.7332040328,15000,49.1056144132999,8,4312383.225634345,4327383.225634345,3244771.7332040328,3259771.7332040328
K000000213,KRH Psychiatrie Wunstorf,9.4308,52.4241,Südstr. 25,31515,Wunstorf,Niedersachsen,"KRH Psychiatrie Wunstorf, Südstraße 25, 31515 Wunstorf",Niedersachsen,4282278.84289646,3257341.291133551,15000,45.2641917929251,9,4274778.84289646,4289778.84289646,3249841.291133551,3264841.291133551
K000000214,MEDIAN Zentrum für Verhaltensmedizin Bad Pyrmont - Fachkrankenhaus,9.2525,51.9911,Bombergallee 11,31812,Bad Pyrmont,Niedersachsen,"MEDIAN Zentrum für Verhaltensmedizin Bad Pyrmont - Fachkrankenhaus, Bombergallee 11, 31812 Bad Pyrmont",Niedersachsen,4269654.05153053,3209272.97898649,15000,32.87768493589736,4,4262154.05153053,4277154.05153053,3201772.97898649,3216772.97898649
K000000215,AMEOS Klinikum Hameln,9.3635,52.1029,Wilhelmstr. 5,31785,Hameln,Niedersachsen,"AMEOS Klinikum Hameln, Wilhelmstraße 5, 31785 Hameln",Niedersachsen,4277387.2808839,3221639.974435189,15000,50.01264882362852,5,4269887.2808839,4284887.2808839,3214139.974435189,3229139.974435189
K000000216,MediClin Klinik für Akutpsychosomatik und Psychotherapie,9.4712,52.2082,Lug ins Land 5,31848,Bad Münder,Niedersachsen,"MediClin Klinik für Akutpsychosomatik und Psychotherapie, Lug ins Land 5, 31848 Bad Münder",Niedersachsen,4284851.952075732,3233297.4239793853,15000,27.606098031512634,5,4277351.952075732,4292351.952075732,3225797.4239793853,3240797.4239793853
K000000217,"Aller-Weser-Klinik gGmbH, Krankenhaus Achim",9.0048,53.0183,Bierdener Mühle 2,28832,Achim,Niedersachsen,"Aller-Weser-Klinik gGmbH, Krankenhaus Achim, Bierdener Mühle 2, 28832 Achim",Niedersachsen,4254211.7794108195,3323768.2973052557,15000,46.35297498873036,5,4246711.7794108195,4261711.7794108195,3316268.2973052557,3331268.2973052557
K000000218,Diana Krankenhausbetriebsgesellschaft mbH,10.5888,53.081,Dahlenburger Str. 2 a,29549,Bad Bevensen,Niedersachsen,"Diana Krankenhausbetriebsgesellschaft mbH, Dahlenburger Straße 2 a, 29549 Bad Bevensen",Niedersachsen,4360458.442065713,3330448.0097796237,15000,24.120247483274383,2,4352958.442065713,4367958.442065713,3322948.0097796237,3337948.0097796237
K000000219,Falkenried Caduceus Klinik,10.602,53.0906,Niendorfer Weg 5,29549,Bad Bevensen,Niedersachsen,"Falkenried Caduceus Klinik, Niendorfer Weg 5, 29549 Bad Bevensen",Niedersachsen,4361334.081005919,3331523.524064879,15000,21.059468823609713,2,4353834.081005919,4368834.081005919,3324023.524064879,3339023.524064879
K000000220,OsteMed Klinik Bremervörde,9.1353,53.4713,Gnarrenburger Str. 117,27432,Bremervörde,Niedersachsen,"OsteMed Klinik Bremervörde, Gnarrenburger Straße 117, 27432 Bremervörde",Niedersachsen,4263575.823883254,3374063.663256185,15000,37.13471725124148,5,4256075.823883254,4271075.823883254,3366563.663256185,3381563.663256185
K000000221,Krankenhaus Buchholz,9.8736,53.3336,Steinbecker Str. 44,21244,Buchholz in der Nordheide,Niedersachsen,"Krankenhaus Buchholz, Steinbecker Straße 44, 21244 Buchholz in der Nordheide",Niedersachsen,4312578.630637694,3358405.0796186198,15000,44.58205978898524,4,4305078.630637694,4320078.630637694,3350905.0796186198,3365905.0796186198
K000000222,Elbe Klinikum Buxtehude,9.6751,53.4617,Am Krankenhaus 1,21614,Buxtehude,Niedersachsen,"Elbe Klinikum Buxtehude, Am Krankenhaus 1, 21614 Buxtehude",Niedersachsen,4299418.24739873,3372701.3711469052,15000,35.29864903645022,4,4291918.24739873,4306918.24739873,3365201.3711469052,3380201.3711469052
K000000223,ALLGEMEINES KRANKENHAUS CELLE,10.0847,52.6286,Siemensplatz 4,29223,Celle,Niedersachsen,"ALLGEMEINES KRANKENHAUS CELLE, Siemensplatz 4, 29223 Celle",Niedersachsen,4326735.352179893,3279948.976872749,15000,68.21475045217291,11,4319235.352179893,4334235.352179893,3272448.976872749,3287448.976872749
K000000224,Helios Klinik Cuxhaven GmbH,8.6923,53.8522,Altenwalder Chaussee 10,27474,Cuxhaven,Niedersachsen,"Helios Klinik Cuxhaven GmbH, Altenwalder Chaussee 10, 27474 Cuxhaven",Niedersachsen,4234934.24596143,3416886.1282798867,15000,18.08988303822032,2,4227434.24596143,4242434.24596143,3409386.1282798867,3424386.1282798867
K000000225,Capio Elbe-Jeetzel-Klinik Dannenberg,11.0808,53.0832,Hermann-Löns-Str. 2,29451,Dannenberg,Niedersachsen,"Capio Elbe-Jeetzel-Klinik Dannenberg, Hermann-Löns-Straße 2, 29451 Dannenberg",Niedersachsen,4393423.976037963,3331071.7915531793,15000,33.06512301011999,5,4385923.976037963,4400923.976037963,3323571.7915531793,3338571.7915531793
K000000226,Heidekreis-Klinikum GmbH Krankenhaus Walsrode,9.5865,52.8591,Robert-Koch-Str. 4,29664,Walsrode,Niedersachsen,"Heidekreis-Klinikum GmbH Krankenhaus Walsrode, Robert-Koch-Straße 4, 29664 Walsrode",Niedersachsen,4293147.402945911,3305674.333301806,15000,34.85414832593054,6,4285647.402945911,4300647.402945911,3298174.333301806,3313174.333301806
K000000227,Waldklinik Jesteburg,9.9489,53.3193,Kleckerwaldweg 145,21266,Jesteburg,Niedersachsen,"Waldklinik Jesteburg, Kleckerwaldweg 145, 21266 Jesteburg",Niedersachsen,4317594.340535789,3356807.6092693782,15000,36.33781104332243,6,4310094.340535789,4325094.340535789,3349307.6092693782,3364307.6092693782
K000000229,Klinik Lilienthal,8.9073,53.1498,Moorhauser Landstr. 3c,28865,Lilienthal,Niedersachsen,"Klinik Lilienthal, Moorhauser Landstraße 3c, 28865 Lilienthal",Niedersachsen,4247891.238624754,3338494.3050945615,15000,38.56743578393852,8,4240391.238624754,4255391.238624754,3330994.3050945615,3345994.3050945615
K000000230,Psychiatrische Klinik Uelzen,10.5284,52.9668,An den Zehn Eichen 50,29525,Uelzen,Niedersachsen,"Psychiatrische Klinik Uelzen, An den Zehn Eichen 50, 29525 Uelzen",Niedersachsen,4356504.06913843,3317708.9769715797,15000,48.82850425397256,6,4349004.06913843,4364004.06913843,3310208.9769715797,3325208.9769715797
K000000231,Klinik Dr.Havemann,10.4103,53.238,Barckhausenstr. 57,21335,Lüneburg,Niedersachsen,"Klinik Dr.Havemann, Barckhausenstr. 57, 21335 Lüneburg",Niedersachsen,4348396.760682884,3347836.6240407587,15000,52.88003993413076,6,4340896.760682884,4355896.760682884,3340336.6240407587,3355336.6240407587
K000000232,Psychiatrische Klinik Lüneburg gemeinnützige GmbH,10.3868,53.2536,Am Wienebütteler Weg 1,21339,Lüneburg,Niedersachsen,"Psychiatrische Klinik Lüneburg gemeinnützige GmbH, Am Wienebütteler Weg 1, 21339 Lüneburg",Niedersachsen,4346818.278939675,3349563.981413552,15000,53.736937457901625,6,4339318.278939675,4354318.278939675,3342063.981413552,3357063.981413552
K000000233,Städtisches Klinikum Lüneburg gemeinnützige GmbH,10.3954,53.2404,Bögelstr. 1,21339,Lüneburg,Niedersachsen,"Städtisches Klinikum Lüneburg gemeinnützige GmbH, Bögelstraße 1, 21339 Lüneburg",Niedersachsen,4347400.392271648,3348098.1749270554,15000,52.9645044058108,6,4339900.392271648,4354900.392271648,3340598.1749270554,3355598.1749270554
K000000234,Kreiskrankenhaus Osterholz,8.7928,53.2338,Am Krankenhaus 4,27711,Osterholz-Scharmbeck,Niedersachsen,"Kreiskrankenhaus Osterholz, Am Krankenhaus 4, 27711 Osterholz-Scharmbeck",Niedersachsen,4240388.18363239,3347962.1551570315,15000,27.24877678342348,3,4232888.18363239,4247888.18363239,3340462.1551570315,3355462.1551570315
K000000235,Capio Krankenhaus Land Hadeln,8.8897,53.8126,Große Ortstr. 85,21762,Otterndorf,Niedersachsen,"Capio Krankenhaus Land Hadeln, Große Ortstraße 85, 21762 Otterndorf",Niedersachsen,4247856.2602672605,3412262.8903903402,15000,15.994494997524953,1,4240356.2602672605,4255356.2602672605,3404762.8903903402,3419762.8903903402
K000000236,Ev. Krankenhaus Ginsterhof GmbH,9.935,53.4043,Metzendorfer Weg 21,21224,Rosengarten,Niedersachsen,"Ev. Krankenhaus Ginsterhof GmbH, Metzendorfer Weg 21, 21224 Rosengarten",Niedersachsen,4316676.515308887,3366267.345417943,15000,28.897934231602243,5,4309176.515308887,4324176.515308887,3358767.345417943,3373767.345417943
K000000237,AGAPLESION DIAKONIEKLINIKUM ROTENBURG gemeinnützige GmbH,9.4131,53.1073,Elise-Averdieck-Str. 17,27356,Rotenburg (Wümme),Niedersachsen,"AGAPLESION DIAKONIEKLINIKUM ROTENBURG gemeinnützige GmbH, Elise-Averdieck-Str. 17, 27356 Rotenburg (Wümme)",Niedersachsen,4281692.752351909,3333373.578303605,15000,48.009720836260705,4,4274192.752351909,4289192.752351909,3325873.578303605,3340873.578303605
K000000240,Heidekreis-Klinikum GmbH Krankenhaus Soltau,9.8559,52.9894,Oeninger Weg 30,29614,Soltau,Niedersachsen,"Heidekreis-Klinikum GmbH Krankenhaus Soltau, Oeninger Weg 30, 29614 Soltau",Niedersachsen,4311322.6214594655,3320104.389027617,15000,66.84389424248053,6,4303822.6214594655,4318822.6214594655,3312604.389027617,3327604.389027617
K000000241,Elbe Klinikum Stade,9.4433,53.5957,Bremervörder Str. 111,21682,Stade,Niedersachsen,"Elbe Klinikum Stade, Bremervörder Straße 111, 21682 Stade",Niedersachsen,4284136.886408808,3387706.49715848,15000,25.809712285217174,3,4276636.886408808,4291636.886408808,3380206.49715848,3395206.49715848
K000000243,"Aller-Weser-Klinik gGmbH, Krankenhaus Verden",9.2351,52.914,Eitzer Str. 20,27283,Verden (Aller),Niedersachsen,"Aller-Weser-Klinik gGmbH, Krankenhaus Verden, Eitzer Straße 20, 27283 Verden (Aller)",Niedersachsen,4269543.325443668,3311975.13732562,15000,51.502318573036774,5,4262043.325443668,4277043.325443668,3304475.13732562,3319475.13732562
K000000244,Krankenhaus Winsen ( Luhe ),10.2004,53.3509,Friedrich-Lichtenauer-Allee 1,21423,Winsen ( Luhe ),Niedersachsen,"Krankenhaus Winsen ( Luhe ), Friedrich-Lichtenauer-Allee 1, 21423 Winsen ( Luhe )",Niedersachsen,4334346.214758644,3360341.3579498525,15000,62.32712789925713,7,4326846.214758644,4341846.214758644,3352841.3579498525,3367841.3579498525
K000000247,Klinik Fallingbostel,9.7059,52.869,Kolkweg 1,29683,Bad Fallingbostel,Niedersachsen,"Klinik Fallingbostel, Kolkweg 1, 29683 Bad Fallingbostel",Niedersachsen,4301194.3973265365,3306736.8348944765,15000,31.20956320287419,5,4293694.3973265365,4308694.3973265365,3299236.8348944765,3314236.8348944765
K000000248,Herz- und Gefäßzentrum Bad Bevensen,10.6035,53.0855,Römstedter Str. 25,29549,Bad Bevensen,Niedersachsen,"Herz- und Gefäßzentrum Bad Bevensen, Römstedter Straße 25, 29549 Bad Bevensen",Niedersachsen,4361439.337757092,3330956.843901849,15000,22.83588178401818,2,4353939.337757092,4368939.337757092,3323456.843901849,3338456.843901849
K000000249,Orthoklinik Lüneburg GmbH,10.394,53.2328,Ginsterweg 5-7,21335,Lüneburg,Niedersachsen,"Orthoklinik Lüneburg GmbH, Ginsterweg 5-7, 21335 Lüneburg",Niedersachsen,4347311.554237219,3347251.9369868236,15000,51.96612512067556,6,4339811.554237219,4354811.554237219,3339751.9369868236,3354751.9369868236
K000000250,MediClin Klinikum Soltau,9.857,52.9941,Oeninger Weg 59,29614,Soltau,Niedersachsen,"MediClin Klinikum Soltau, Oeninger Weg 59, 29614 Soltau",Niedersachsen,4311397.532706529,3320627.2574985293,15000,66.84136486823749,6,4303897.532706529,4318897.532706529,3313127.2574985293,3328127.2574985293
K000000252,Klinik Dr. med. T. Witwity GmbH,9.4737,53.5981,Neubourgstr. 4,21682,Stade,Niedersachsen,"Klinik Dr. med. T. Witwity GmbH, Neubourgstr. 4, 21682 Stade",Niedersachsen,4286151.810307612,3387958.5355672906,15000,25.190404964857343,3,4278651.810307612,4293651.810307612,3380458.5355672906,3395458.5355672906
K000000253,Klinik Dr. Hancken GmbH,9.4727,53.5951,Harsefelder Str. 8,21680,Stade,Niedersachsen,"Klinik Dr. Hancken GmbH, Harsefelder Str. 8, 21680 Stade",Niedersachsen,4286083.139328069,3387625.1744584776,15000,25.99353706083552,3,4278583.139328069,4293583.139328069,3380125.1744584776,3395125.1744584776
K000000254,Helios Klinikum Uelzen GmbH,10.5321,52.9718,Hagenskamp 34,29525,Uelzen,Niedersachsen,"Helios Klinikum Uelzen GmbH, Hagenskamp 34, 29525 Uelzen",Niedersachsen,4356748.5642343145,3318267.1769024767,15000,47.534994148435146,6,4349248.5642343145,4364248.5642343145,3310767.1769024767,3325767.1769024767
K000000255,HELIOS Seehospital Sahlenburg,8.6003,53.8653,Nordheimstr. 201,27476,Cuxhaven,Niedersachsen,"HELIOS Seehospital Sahlenburg, Nordheimstraße 201, 27476 Cuxhaven",Niedersachsen,4228908.723313798,3418456.869458471,15000,8.150996530929524,2,4221408.723313798,4236408.723313798,3410956.869458471,3425956.869458471
K000000256,MediClin Seepark Klinik,10.6832,52.8241,Sebastian-Kneipp-Str. 1,29389,Bad Bodenteich,Niedersachsen,"MediClin Seepark Klinik, Sebastian-Kneipp-Str. 1, 29389 Bad Bodenteich",Niedersachsen,4367055.475363354,3301916.7917359704,15000,25.062531918023225,2,4359555.475363354,4374555.475363354,3294416.7917359704,3309416.7917359704
K000000257,Niels-Stensen-Kliniken Marienhospital Ankum-Bersenbrück GmbH,7.8741,52.5409,Lingener Str. 11,49577,Ankum,Niedersachsen,"Niels-Stensen-Kliniken Marienhospital Ankum-Bersenbrück GmbH, Lingener Straße 11, 49577 Ankum",Niedersachsen,4176784.3067895933,3272293.832608234,15000,25.034957678599138,5,4169284.3067895933,4184284.3067895933,3264793.832608234,3279793.832608234
K000000258,"Ubbo-Emmius-Klinik gGmbH, Ostfriesisches Krankenhaus, Klinik Aurich",7.4971,53.4676,Wallinghausener Str. 8 - 12,26603,Aurich,Niedersachsen,"Ubbo-Emmius-Klinik gGmbH, Ostfriesisches Krankenhaus, Klinik Aurich, Wallinghausener Str. 8 - 12, 26603 Aurich",Niedersachsen,4154803.3175350893,3376177.64598863,15000,39.74955870803632,4,4147303.3175350893,4162303.3175350893,3368677.64598863,3383677.64598863
K000000259,Schüchtermann-Klinik,8.1626,52.1113,Ulmenallee 5-11,49214,Bad Rothenfelde,Niedersachsen,"Schüchtermann-Klinik, Ulmenallee 5-11, 49214 Bad Rothenfelde",Niedersachsen,4195139.302259437,3223971.1251030387,15000,18.77345241703754,4,4187639.302259437,4202639.302259437,3216471.1251030387,3231471.1251030387
K000000260,Augenklinik Dr. Georg,8.1588,52.1103,Am Kurpark 13-15,49214,Bad Rothenfelde,Niedersachsen,"Augenklinik Dr. Georg, Am Kurpark 13-15, 49214 Bad Rothenfelde",Niedersachsen,4194876.25049753,3223866.456758892,15000,18.392862314922834,4,4187376.25049753,4202376.25049753,3216366.456758892,3231366.456758892
K000000261,Karl-Jaspers-Klinik,8.1401,53.1697,Hermann-Ehlers-Str. 7,26160,Bad Zwischenahn,Niedersachsen,"Karl-Jaspers-Klinik, Hermann-Ehlers-Straße 7, 26160 Bad Zwischenahn",Niedersachsen,4196628.146377013,3341751.8306252356,15000,39.74699822770762,9,4189128.146377013,4204128.146377013,3334251.8306252356,3349251.8306252356
K000000262,Paulinenkrankenhaus Bad Bentheim,7.1501,52.2995,Paulinenweg 1,48455,Bad Bentheim,Niedersachsen,"Paulinenkrankenhaus Bad Bentheim, Paulinenweg 1, 48455 Bad Bentheim",Niedersachsen,4126639.03442753,3247129.328830471,15000,42.15372087224982,6,4119139.03442753,4134139.03442753,3239629.328830471,3254629.328830471
K000000263,St. Bernhard-Hospital gemeinnützige GmbH,8.4823,53.3243,Claußenstr. 3,26919,Brake,Niedersachsen,"St. Bernhard-Hospital gemeinnützige GmbH, Claußenstraße 3, 26919 Brake",Niedersachsen,4219870.213527011,3358420.4385435483,15000,28.272689143023527,5,4212370.213527011,4227370.213527011,3350920.4385435483,3365920.4385435483
K000000264,Niels-Stensen-Kliniken Bramsche GmbH,7.9853,52.409,Hasestr. 16,49565,Bramsche,Niedersachsen,"Niels-Stensen-Kliniken Bramsche GmbH, Hasestraße 16, 49565 Bramsche",Niedersachsen,4183917.2525522276,3257406.8801892013,15000,20.72177382922648,4,4176417.2525522276,4191417.2525522276,3249906.8801892013,3264906.8801892013
K000000265,Krankenhaus St. Elisabeth gGmbH,8.1945,52.5216,Lindenstr. 3-7,49401,Damme,Niedersachsen,"Krankenhaus St. Elisabeth gGmbH, Lindenstraße 3-7, 49401 Damme",Niedersachsen,4198460.242246737,3269559.5426217387,15000,25.33935396267929,4,4190960.242246737,4205960.242246737,3262059.5426217387,3277059.5426217387
K000000266,Stadtkrankenhaus Delmenhorst GmbH,8.5925,53.0445,Wildeshauser Str. 92,27753,Delmenhorst,Niedersachsen,"Stadtkrankenhaus Delmenhorst GmbH, Wildeshauser Straße 92, 27753 Delmenhorst",Niedersachsen,4226602.591984616,3327140.9698858154,15000,53.884926286397494,6,4219102.591984616,4234102.591984616,3319640.9698858154,3334640.9698858154
K000000270,Klinikum Emden - Hans-Susemihl-Krankenhaus gGmbH,7.2136,53.3739,Bolardusstr. 20,26721,Emden,Niedersachsen,"Klinikum Emden - Hans-Susemihl-Krankenhaus gGmbH, Bolardusstraße 20, 26721 Emden",Niedersachsen,4135583.626309983,3366443.5615323195,15000,32.549490715957766,5,4128083.626309983,4143083.626309983,3358943.5615323195,3373943.5615323195
K000000272,St.-Marien-Hospital gGmbH,7.8543,53.0223,St.-Marien-Str. 1,26169,Friesoythe,Niedersachsen,"St.-Marien-Hospital gGmbH, St.-Marien-Str. 1, 26169 Friesoythe",Niedersachsen,4177033.62113459,3325882.431055978,15000,19.463878234795054,4,4169533.62113459,4184533.62113459,3318382.431055978,3333382.431055978
K000000273,Klinik für Kinder- und Jugendpsychiatrie Wichernstift gGmbH,8.5757,53.0478,Oldenburger Str. 333,27777,Ganderkesee,Niedersachsen,"Klinik für Kinder- und Jugendpsychiatrie Wichernstift gGmbH, Oldenburger Straße 333, 27777 Ganderkesee",Niedersachsen,4225483.289907545,3327530.098556796,15000,53.37031258696514,7,4217983.289907545,4232983.289907545,3320030.098556796,3335030.098556796
K000000274,Klinikum Osnabrücker Land GmbH,8.0415,52.2048,Hospitalweg 1,49124,Georgsmarienhütte,Niedersachsen,"Klinikum Osnabrücker Land GmbH, Hospitalweg 1, 49124 Georgsmarienhütte",Niedersachsen,4187126.698036555,3234587.7426015646,15000,47.41251692974148,8,4179626.698036555,4194626.698036555,3227087.7426015646,3242087.7426015646
K000000275,Niels-Stensen-Kliniken St.-Vinzenz-Hospital Haselünne GmbH,7.4837,52.6711,Hammer Str. 9,49740,Haselünne,Niedersachsen,"Niels-Stensen-Kliniken St.-Vinzenz-Hospital Haselünne GmbH, Hammer Str. 9, 49740 Haselünne",Niedersachsen,4150815.852907544,3287619.448256395,15000,20.056466133118025,4,4143315.852907544,4158315.852907544,3280119.448256395,3295119.448256395
K000000276,Klinikum Leer gGmbH,7.4585,53.2359,Augustenstr. 35 - 37,26789,Leer,Niedersachsen,"Klinikum Leer gGmbH, Augustenstraße 35 - 37, 26789 Leer",Niedersachsen,4151328.538438784,3350496.329360666,15000,31.118172282462147,3,4143828.538438784,4158828.538438784,3342996.329360666,3357996.329360666
K000000277,Borromäus Hospital Leer gGmbH,7.4458,53.2287,Kirchstr. 61 - 67,26789,Leer,Niedersachsen,"Borromäus Hospital Leer gGmbH, Kirchstraße 61 - 67, 26789 Leer",Niedersachsen,4150452.6119243205,3349725.2918403004,15000,34.138911519407955,5,4142952.6119243205,4157952.6119243205,3342225.2918403004,3357225.2918403004
K000000278,Bonifatius Hospital Lingen,7.3157,52.5251,Wilhelmstr. 13,49808,Lingen,Niedersachsen,"Bonifatius Hospital Lingen, Wilhelmstraße 13, 49808 Lingen",Niedersachsen,4138856.484072244,3271788.893217115,15000,25.478533188955378,2,4131356.484072244,4146356.484072244,3264288.893217115,3279288.893217115
K000000279,St. Anna Klinik,7.7544,52.7345,St. Annenstr. 9,49624,Löningen,Niedersachsen,"St. Anna Klinik, St. Annenstr. 9, 49624 Löningen",Niedersachsen,4169336.1341171223,3294072.106436294,15000,22.24252158319971,3,4161836.1341171223,4176836.1341171223,3286572.106436294,3301572.106436294
K000000280,St. Franziskus-Hospital Lohne,8.2408,52.6646,Franziskusstr. 6,49393,Lohne,Niedersachsen,"St. Franziskus-Hospital, Franziskusstr. 6, 49393 Lohne",Niedersachsen,4201988.91052383,3285391.038677939,15000,29.27950354260398,4,4194488.91052383,4209488.91052383,3277891.038677939,3292891.038677939
K000000281,Niels-Stensen-Klinikum Christliches Klinikum Melle,8.3356,52.1974,Engelgarten 3,49324,Melle,Niedersachsen,"Niels-Stensen-Klinikum Christliches Klinikum Melle, Engelgarten 3, 49324 Melle",Niedersachsen,4207206.634627241,3233264.572947583,15000,16.65820949806159,1,4199706.634627241,4214706.634627241,3225764.572947583,3240764.572947583
K000000282,Krankenhaus Ludmillenstift,7.2928,52.6888,Ludmillenstr. 4-6,49716,Meppen,Niedersachsen,"Krankenhaus Ludmillenstift, Ludmillenstraße 4-6, 49716 Meppen",Niedersachsen,4137985.20489904,3290051.571309071,15000,29.34012893842473,3,4130485.20489904,4145485.20489904,3282551.571309071,3297551.571309071
K000000283,Clemens-August-Klinik,8.105,52.5118,Wahlde 11,49434,Neuenkirchen-Vörden,Niedersachsen,"Clemens-August-Klinik, Wahlde 11, 49434 Neuenkirchen-Vörden",Niedersachsen,4192358.85995751,3268623.8283219277,15000,27.260915839751537,4,4184858.85995751,4199858.859957511,3261123.8283219277,3276123.8283219277
K000000284,"Ubbo-Emmius-Klinik gGmbH, Ostfriesisches Krankenhaus, Klinik Norden",7.2177,53.6009,Osterstr. 110,26506,Norden,Niedersachsen,"Ubbo-Emmius-Klinik gGmbH, Ostfriesisches Krankenhaus, Klinik Norden, Osterstr. 110, 26506 Norden",Niedersachsen,4136836.726681793,3391678.2404468576,15000,20.81921082259038,4,4129336.726681793,4144336.726681793,3384178.2404468576,3399178.2404468576
K000000285,Krankenhaus Norderney,7.1723,53.7162,Lippestr. 9-11,26548,Norderney,Niedersachsen,"Krankenhaus Norderney, Lippestr. 9-11, 26548 Norderney",Niedersachsen,4134340.3993145544,3404617.0483455355,15000,10.916836208345135,11,4126840.3993145544,4141840.3993145544,3397117.0483455355,3412117.0483455355
K000000286,Helios Klinik Wesermarsch,8.4652,53.4837,Mildred-Scheel-Str. 1,26954,Nordenham,Niedersachsen,"Helios Klinik Wesermarsch, Mildred-Scheel-Str. 1, 26954 Nordenham",Niedersachsen,4219110.474171872,3376179.4135065493,15000,30.6852294858728,5,4211610.474171872,4226610.474171872,3368679.4135065493,3383679.4135065493
K000000287,Euregio-Klinik Hannoverstraße GmbH,7.0658,52.4427,Albert-Schweitzer-Str. 10,48527,Nordhorn,Niedersachsen,"Euregio-Klinik Hannoverstraße GmbH, Albert-Schweitzer-Straße 10, 48527 Nordhorn",Niedersachsen,4121538.201996533,3263280.9563133493,15000,20.08685255524082,3,4114038.201996533,4129038.201996533,3255780.9563133493,3270780.9563133493
K000000288,Euregio-Klinik Albert-Schweitzer-Straße GmbH,7.0658,52.4427,Albert-Schweitzer-Str. 10,48527,Nordhorn,Niedersachsen,"Euregio-Klinik Albert-Schweitzer-Straße GmbH, Albert-Schweitzer-Str. 10, 48527 Nordhorn",Niedersachsen,4121538.201996533,3263280.9563133493,15000,20.08685255524082,3,4114038.201996533,4129038.201996533,3255780.9563133493,3270780.9563133493
K000000289,Klinikum Oldenburg AöR,8.218,53.1117,Rahel-Straus-Str. 10,26133,Oldenburg,Niedersachsen,"Klinikum Oldenburg AöR, Rahel-Straus-Str. 10, 26133 Oldenburg",Niedersachsen,4201676.201323934,3335168.5491448073,15000,38.57848770195656,8,4194176.201323934,4209176.201323934,3327668.5491448073,3342668.5491448073
K000000290,"Pius-Hospital Oldenburg, Medizinischer Campus Universität Oldenburg",8.211,53.144,Georgstr. 12,26121,Oldenburg,Niedersachsen,"Pius-Hospital Oldenburg, Medizinischer Campus Universität Oldenburg, Georgstraße 12, 26121 Oldenburg",Niedersachsen,4201296.9689288335,3338773.509197226,15000,42.17265093147924,10,4193796.9689288335,4208796.9689288335,3331273.509197226,3346273.509197226
K000000291,Evangelisches Krankenhaus Oldenburg,8.2053,53.1422,Steinweg 13 - 17,26122,Oldenburg,Niedersachsen,"Evangelisches Krankenhaus Oldenburg, Steinweg 13 - 17, 26122 Oldenburg",Niedersachsen,4200910.67077105,3338582.6682339287,15000,41.98652316468768,10,4193410.6707710503,4208410.67077105,3331082.6682339287,3346082.6682339287
K000000292,Paracelsus-Klinik Osnabrück,8.0103,52.289,Am Natruper Holz 69,49076,Osnabrück,Niedersachsen,"Paracelsus-Klinik Osnabrück, Am Natruper Holz 69, 49076 Osnabrück",Niedersachsen,4185251.42482457,3244011.60926825,15000,55.16150334779527,11,4177751.42482457,4192751.42482457,3236511.60926825,3251511.60926825
K000000293,AMEOS Klinikum Osnabrück,8.0523,52.2881,Knollstr. 31,49088,Osnabrück,Niedersachsen,"AMEOS Klinikum Osnabrück, Knollstraße 31, 49088 Osnabrück",Niedersachsen,4188113.4151356686,3243834.0251495726,15000,55.42660646111063,9,4180613.4151356686,4195613.415135669,3236334.0251495726,3251334.0251495726
K000000294,Kinderhospital Osnabrück,8.0643,52.2519,Iburger Str. 187,49082,Osnabrück,Niedersachsen,"Kinderhospital Osnabrück, Iburger Straße 187, 49082 Osnabrück",Niedersachsen,4188824.4872949673,3239785.3723235093,15000,58.79545464917064,9,4181324.4872949673,4196324.487294967,3232285.3723235093,3247285.3723235093
K000000295,Niels-Stensen-Kliniken Marienhospital Osnabrück,8.0538,52.2703,Bischofsstr. 1,49074,Osnabrück,Niedersachsen,"Niels-Stensen-Kliniken Marienhospital Osnabrück, Bischofsstraße 1, 49074 Osnabrück",Niedersachsen,4188162.6101659685,3241851.253682331,15000,61.74641627057696,9,4180662.6101659685,4195662.610165969,3234351.253682331,3249351.253682331
K000000296,Klinikum Osnabrück GmbH,8.0024,52.2768,Am Finkenhügel 1,49076,Osnabrück,Niedersachsen,"Klinikum Osnabrück GmbH, Am Finkenhügel 1, 49076 Osnabrück",Niedersachsen,4184675.2288064193,3242669.2843007343,15000,60.04011022970154,11,4177175.2288064193,4192175.2288064193,3235169.2843007343,3250169.2843007343
K000000297,Niels-Stensen-Kliniken Krankenhaus St. Raphael Ostercappeln,8.2288,52.3453,Bremer Str. 31,49179,Ostercappeln,Niedersachsen,"Niels-Stensen-Kliniken Krankenhaus St. Raphael Ostercappeln, Bremer Straße 31, 49179 Ostercappeln",Niedersachsen,4200308.082327292,3249889.6966121276,15000,35.96876302059696,5,4192808.0823272923,4207808.082327292,3242389.6966121276,3257389.6966121276
K000000298,Christliches Krankenhaus Quakenbrück GmbH,7.9384,52.6681,Danziger Str. 2,49610,Quakenbrück,Niedersachsen,"Christliches Krankenhaus Quakenbrück GmbH, Danziger Straße 2, 49610 Quakenbrück",Niedersachsen,4181548.3286178163,3286317.753019011,15000,36.99025003670228,5,4174048.3286178163,4189048.3286178163,3278817.753019011,3293817.753019011
K000000299,Nordwest-Krankenhaus Sanderbusch gGmbH,8.0068,53.5076,Am Gut Sanderbusch 1,26452,Sande,Niedersachsen,"Nordwest-Krankenhaus Sanderbusch gGmbH, Am Gut Sanderbusch 1, 26452 Sande",Niedersachsen,4188760.868690558,3379578.3783774767,15000,25.545446083207274,3,4181260.868690558,4196260.868690558,3372078.3783774767,3387078.3783774767
K000000300,Hümmling Hospital Sögel gGmbH,7.5191,52.8432,Mühlenstr. 17,49751,Sögel,Niedersachsen,"Hümmling Hospital Sögel gGmbH, Mühlenstraße 17, 49751 Sögel",Niedersachsen,4153866.848016118,3306678.527049548,15000,16.99239726799833,5,4146366.848016118,4161366.848016118,3299178.527049548,3314178.527049548
K000000301,Niels Stensen Kliniken Elisabeth-Kranknehaus Thuine,7.4899,52.4978,Klosterstr. 4,49832,Thuine,Niedersachsen,"Niels Stensen Kliniken Elisabeth-Kranknehaus Thuine, Klosterstraße 4, 49832 Thuine",Niedersachsen,4150565.9121818766,3268330.6753559234,15000,9.503490108703573,1,4143065.9121818766,4158065.9121818766,3260830.6753559234,3275830.6753559234
K000000302,St. Johannes-Hospital gGmbH,8.1396,53.3925,Bleichenpfad 9,26316,Varel,Niedersachsen,"St. Johannes-Hospital gGmbH, Bleichenpfad 9, 26316 Varel",Niedersachsen,4197236.870599825,3366539.2685046815,15000,42.77649222732166,11,4189736.870599825,4204736.870599825,3359039.2685046815,3374039.2685046815
K000000303,St. Marienhospital Vechta,8.2867,52.7257,Marienstr. 6-8,49377,Vechta,Niedersachsen,"St. Marienhospital Vechta, Marienstraße 6-8, 49377 Vechta",Niedersachsen,4205254.610767115,3292114.3176082415,15000,39.14525690897761,5,4197754.610767115,4212754.610767115,3284614.3176082415,3299614.3176082415
K000000304,Krankenhaus Rheiderland,7.3524,53.168,Neue Str. 22,26826,Weener,Niedersachsen,"Krankenhaus Rheiderland, Neue Straße 22, 26826 Weener",Niedersachsen,4143970.571406216,3343197.8526050025,15000,27.70052189281189,4,4136470.571406216,4151470.571406216,3335697.8526050025,3350697.8526050025
K000000305,Krankenhaus Johanneum,8.4317,52.8939,Feldstr. 1,27793,Wildeshausen,Niedersachsen,"Krankenhaus Johanneum, Feldstrasse 1, 27793 Wildeshausen",Niedersachsen,4215455.242744568,3310606.525252046,15000,16.01365340286636,1,4207955.242744568,4222955.242744568,3303106.525252046,3318106.525252046
K000000307,Klinikum Wilhelmshaven gGmbH,8.0825,53.5454,Friedrich-Paffrath-Str. 100,26389,Wilhelmshaven,Niedersachsen,"Klinikum Wilhelmshaven gGmbH, Friedrich-Paffrath-Straße 100, 26389 Wilhelmshaven",Niedersachsen,4193894.3824486663,3383648.182501804,15000,14.733452833446867,2,4186394.3824486663,4201394.382448666,3376148.182501804,3391148.182501804
K000000308,Krankenhaus Wittmund gGmbH,7.7885,53.5719,Dohuser Weg 10,26409,Wittmund,Niedersachsen,"Krankenhaus Wittmund gGmbH, Dohuser Weg 10, 26409 Wittmund",Niedersachsen,4174503.547534134,3387150.8863602905,15000,34.51028885351825,5,4167003.547534134,4182003.547534134,3379650.8863602905,3394650.8863602905
K000000309,Fachklinik Bad Bentheim,7.1622,52.3171,Am Bade 1,48455,Bad Bentheim,Niedersachsen,"Fachklinik Bad Bentheim, Am Bade 1, 48455 Bad Bentheim",Niedersachsen,4127540.3588908417,3249054.2224543663,15000,42.77233996108335,5,4120040.3588908417,4135040.3588908417,3241554.2224543663,3256554.2224543663
K000000310,St. Josefs-Hospital Cloppenburg,8.04,52.8477,Krankenhausstr. 13,49661,Cloppenburg,Niedersachsen,"St. Josefs-Hospital Cloppenburg, Krankenhausstraße 13, 49661 Cloppenburg",Niedersachsen,4188961.257030042,3306106.9818586893,15000,46.674289578742396,4,4181461.257030042,4196461.257030042,3298606.9818586893,3313606.9818586893
K000000311,Niels-Stensen-Kliniken Franziskus-Hospital Harderberg,8.0737,52.2376,Alte Rothenfelder Str. 23,49124,Georgsmarienhütte,Niedersachsen,"Niels-Stensen-Kliniken Franziskus-Hospital Harderberg, Alte Rothenfelder Straße 23, 49124 Georgsmarienhütte",Niedersachsen,4189423.9524672218,3238177.6483796607,15000,54.068157876623836,9,4181923.9524672218,4196923.952467222,3230677.6483796607,3245677.6483796607
K000000312,Ammerland-Klinik Westerstede,7.919,53.2587,Lange Str. 38,26655,Westerstede,Niedersachsen,"Ammerland-Klinik Westerstede, Lange Straße 38, 26655 Westerstede",Niedersachsen,4182134.3212092416,3352053.6538081705,15000,29.19081502846154,7,4174634.3212092416,4189634.3212092416,3344553.6538081705,3359553.6538081705
K000000313,Johann-Wilhelm-Ritter-Klinik Zentrum für dermatologische Phototherapie GmbH & Co. KG,8.1527,52.1134,Parkstr. 35-37,49214,Bad Rothenfelde,Niedersachsen,"Johann-Wilhelm-Ritter-Klinik Zentrum für dermatologische Phototherapie GmbH & Co. KG, Parkstr. 35-37, 49214 Bad Rothenfelde",Niedersachsen,4194467.264287367,3224221.8734160936,15000,18.04152405221749,4,4186967.2642873675,4201967.264287367,3216721.8734160936,3231721.8734160936
K000000314,MediClin Hedon Klinik,7.3588,52.5119,Hedonallee 1,49811,Lingen (Ems),Niedersachsen,"MediClin Hedon Klinik, Hedonallee 1, 49811 Lingen (Ems)",Niedersachsen,4141725.9547225386,3270213.856426232,15000,23.237834860294665,2,4134225.9547225386,4149225.9547225386,3262713.856426232,3277713.856426232
K000000315,Marien Hospital Papenburg Aschendorf,7.3941,53.0755,Hauptkanal rechts 74-75,26871,Papenburg,Niedersachsen,"Marien Hospital Papenburg Aschendorf, Hauptkanal rechts 74-75, 26871 Papenburg",Niedersachsen,4146384.6066907737,3332809.1890027197,15000,17.391486881133403,3,4138884.6066907737,4153884.6066907737,3325309.1890027197,3340309.1890027197
K000000316,Westerstede,7.919,53.2587,Lange Str. 38,26655,Westerstede,Niedersachsen,"Westerstede, Lange Straße 38, 26655 Westerstede",Niedersachsen,4182134.3212092416,3352053.6538081705,15000,29.19081502846154,7,4174634.3212092416,4189634.3212092416,3344553.6538081705,3359553.6538081705
K000000317,Christliches Kinderhospital Osnabrück GmbH,8.0522,52.2699,Johannisfreiheit 1,49074,Osnabrück,Niedersachsen,"Christliches Kinderhospital Osnabrück GmbH, Johannisfreiheit 1, 49074 Osnabrück",Niedersachsen,4188052.238148297,3241809.678331698,15000,62.139727415256374,9,4180552.238148297,4195552.238148297,3234309.678331698,3249309.678331698
K000000318,Inselkrankenhaus Borkum,6.6712,53.5857,Gartenstr. 20,26757,Borkum,Niedersachsen,"Inselkrankenhaus Borkum, Gartenstraße 20, 26757 Borkum",Niedersachsen,4100611.7815453717,3391512.9889429323,15000,16.18428182640112,5,4093111.7815453717,4108111.7815453717,3384012.9889429323,3399012.9889429323
K000000319,STENUM Ortho GmbH,8.5553,53.0796,Heilstättenweg 1,27777,Ganderkesee,Niedersachsen,"STENUM Ortho GmbH, Heilstättenweg 1, 27777 Ganderkesee",Niedersachsen,4224186.446309893,3331095.23409276,15000,52.580110827164525,7,4216686.446309893,4231686.446309893,3323595.23409276,3338595.23409276
K000000320,Klinikum Bremen-Mitte,8.8365,53.0743,St.-Jürgen-Str. 1,28205,Bremen,Bremen,"Klinikum Bremen-Mitte, St.-Jürgen-Straße 1, 28205 Bremen",Bremen,4243018.849670724,3330167.130919364,15000,76.90697274492246,17,4235518.849670724,4250518.849670724,3322667.130919364,3337667.130919364
K000000321,Klinikum Bremen-Ost,8.9402,53.0643,Züricher Str. 40,28325,Bremen,Bremen,"Klinikum Bremen-Ost, Züricher Straße 40, 28325 Bremen",Bremen,4249952.141379786,3328948.0438532205,15000,66.93857668573688,9,4242452.141379786,4257452.141379786,3321448.0438532205,3336448.0438532205
K000000322,Klinikum Bremen-Nord,8.5937,53.1842,Hammersbecker Str. 228,28755,Bremen,Bremen,"Klinikum Bremen-Nord, Hammersbecker Straße 228, 28755 Bremen",Bremen,4226986.914862663,3342682.831570326,15000,23.583654893824026,4,4219486.914862663,4234486.914862663,3335182.831570326,3350182.831570326
K000000323,Klinikum Links der Weser,8.8187,53.0356,Senator-Weßling-Str. 1,28277,Bremen,Bremen,"Klinikum Links der Weser, Senator-Weßling-Str. 1, 28277 Bremen",Bremen,4241755.298188355,3325880.3290559216,15000,76.16839864462492,14,4234255.298188355,4249255.298188355,3318380.3290559216,3333380.3290559216
K000000324,DIAKO Ev. Diakonie-Krankenhaus gemeinnützige GmbH,8.7454,53.1258,Gröpelinger Heerstr. 406,28239,Bremen,Bremen,"DIAKO Ev. Diakonie-Krankenhaus gemeinnützige GmbH, Gröpelinger Heerstr. 406, 28239 Bremen",Bremen,4237013.658896045,3335998.9977402617,15000,57.185222754685526,15,4229513.658896045,4244513.658896045,3328498.9977402617,3343498.9977402617
K000000325,Krankenhaus St. Joseph-Stift Bremen GmbH,8.8359,53.0826,Schwachhauser Heerstr. 54,28209,Bremen,Bremen,"Krankenhaus St. Joseph-Stift Bremen GmbH, Schwachhauser Heerstraße 54, 28209 Bremen",Bremen,4242993.578344119,3331091.3018217604,15000,77.17011026170387,16,4235493.578344119,4250493.578344119,3323591.3018217604,3338591.3018217604
K000000326,Rotes Kreuz Krankenhaus Bremen gGmbH,8.8033,53.0693,St.-Pauli-Deich 24,28199,Bremen,Bremen,"Rotes Kreuz Krankenhaus Bremen gGmbH, St.-Pauli-Deich 24, 28199 Bremen",Bremen,4240784.6688620215,3329646.949825446,15000,72.92522589912943,16,4233284.6688620215,4248284.6688620215,3322146.949825446,3337146.949825446
K000000327,Roland Klinik gGmbH,8.8239,53.0566,Niedersachsendamm 72-74,28201,Bremen,Bremen,"Roland Klinik gGmbH, Niedersachsendamm 72-74, 28201 Bremen",Bremen,4242142.265394309,3328211.291312016,15000,78.25549881988267,16,4234642.265394309,4249642.265394309,3320711.291312016,3335711.291312016
K000000328,AMEOS Klinikum Dr. Heines Bremen,8.941,53.0756,Rockwinkeler Landstr. 110,28325,Bremen,Bremen,"AMEOS Klinikum Dr. Heines Bremen, Rockwinkeler Landstraße 110, 28325 Bremen",Bremen,4250024.268275391,3330204.616052911,15000,66.58444606462487,8,4242524.268275391,4257524.268275391,3322704.616052911,3337704.616052911
K000000329,Paracelsus-Klinik Bremen,8.8774,53.0796,In der Vahr 65,28329,Bremen,Bremen,"Paracelsus-Klinik Bremen, In der Vahr 65, 28329 Bremen",Bremen,4245769.027778482,3330713.7133909715,15000,74.46533663468053,15,4238269.027778482,4253269.027778482,3323213.7133909715,3338213.7133909715
K000000330,Klinikum Bremerhaven Reinkenheide gGmbH,8.6367,53.5379,Postbrookstr. 103,27574,Bremerhaven,Bremen,"Klinikum Bremerhaven Reinkenheide gGmbH, Postbrookstraße 103, 27574 Bremerhaven",Bremen,4230608.799332071,3381982.548899763,15000,38.45079228063137,7,4223108.799332071,4238108.799332071,3374482.548899763,3389482.548899763
